lat,lon,name,kind,category
55.6892934,12.5578332,Ølbaren,pub,amenity
55.6902172,12.5639074,Nørrebro Bryghus Restaurant,restaurant,amenity
55.6928608,12.5992622,Den lille Havfrue,artwork,tourism
55.6919540,12.5558180,Empire Bio,cinema,amenity
55.6834082,12.5651843,Bankeråt,pub,amenity
55.6705905,12.5708002,Cabinn City,hotel,tourism
55.6864894,12.5874331,Black Swan,bar,amenity
55.6736632,12.5921433,Café Stærkodder,pub,amenity
55.6723644,12.5622548,Meininger Hotel Copenhagen,hotel,tourism
55.6971586,12.5382153,OK - Lundtoftegade,fuel,amenity
55.6908587,12.5394153,,post_box,amenity
55.6947945,12.5446353,,post_box,amenity
55.6920384,12.5403896,,parking,amenity
55.6911339,12.5394843,,parking,amenity
55.6937922,12.5327584,,atm,amenity
55.6934753,12.5329904,,atm,amenity
55.6781934,12.5763979,Royal,bakery,shop
55.6844609,12.5594799,Thai Pan,restaurant,amenity
55.6742501,12.5730625,Rio Bravo,restaurant,amenity
55.6608034,12.6147721,Copenhagen CitySwingers,swingerclub,amenity
55.6629834,12.6385889,,toilets,amenity
55.6727304,12.5616092,Kakadu Bar,nightclub,amenity
55.6774749,12.5608841,Q8,fuel,amenity
55.6703745,12.5598365,Station City,police,amenity
55.6696025,12.5551472,Konya Kebab,fast_food,amenity
55.6697106,12.5547131,Sticks'n'Sushi,restaurant,amenity
55.6818017,12.5310926,,parking,amenity
55.6864868,12.5331887,,post_box,amenity
55.6874561,12.5301684,Thai Away,fast_food,amenity
55.6764661,12.5695482,Burger King,fast_food,amenity
55.6795540,12.5507497,Biblioteket Danasvej,library,amenity
55.6795619,12.5503985,Cab-Inn,hotel,tourism
55.6808153,12.5555225,Cab-Inn Scandinavia,hotel,tourism
55.6752481,12.5612896,Nordisk Film Biografer Imperial,cinema,amenity
55.6763516,12.5664052,Dagmar,cinema,amenity
55.6817592,12.5343154,Café Moccador,cafe,amenity
55.6719838,12.5540534,Vester Vov Vov,cinema,amenity
55.6618737,12.5614394,,parking,amenity
55.6629630,12.5623836,CinemaxX,cinema,amenity
55.6626409,12.6040080,,parking,amenity
55.6770916,12.5321190,Cafe Intime,pub,amenity
55.6752681,12.5328906,Alléenberg,pub,amenity
55.6764656,12.5710077,Grand Teatret,cinema,amenity
55.6761121,12.5706741,Gloria,cinema,amenity
55.6766107,12.5366472,Edison,theatre,amenity
55.6742295,12.5399431,Promenaden,pub,amenity
55.6797158,12.5547729,,post_box,amenity
55.6746826,12.5486274,,post_box,amenity
55.6768556,12.5390144,,post_box,amenity
55.6848269,12.5378087,,post_box,amenity
55.6800316,12.5484121,,post_box,amenity
55.6786040,12.5320956,,post_box,amenity
55.6760273,12.5428021,Lån og Spar Bank & Rådgivningscenter Frederiksberg,bank,amenity
55.6856353,12.5376527,Viet Nam Nam,restaurant,amenity
55.6740704,12.5496175,Café Viggo,cafe,amenity
55.6855209,12.5382279,London Pub,pub,amenity
55.6862043,12.5343588,Green Kitchen,fast_food,amenity
55.6801592,12.5313466,Falkoner Biografen,cinema,amenity
55.6722759,12.5690757,Wagamama,restaurant,amenity
55.6815798,12.5311375,,post_office,amenity
55.6786502,12.5793688,Europa 1989,cafe,amenity
55.6788788,12.5799142,Café Norden,cafe,amenity
55.6786451,12.5789419,The Dubliner Copenhagen,pub,amenity
55.6779054,12.5771435,Zirup,cafe,amenity
55.6780274,12.5780857,Kafe Kys,cafe,amenity
55.6779618,12.5777989,Hoppe's,cafe,amenity
55.6777283,12.5765653,Wanna B,cafe,amenity
55.6770792,12.5751847,Riz Raz Sticks'N'Veggies Kompagnistræde,restaurant,amenity
55.6763998,12.5733293,Drop Inn,pub,amenity
55.6765807,12.5718891,Il Ponte,restaurant,amenity
55.6797762,12.5754143,Wining & Dining,restaurant,amenity
55.6802012,12.5750978,Flottenheimer,cafe,amenity
55.6794330,12.5753490,Ristorante Amalfi,restaurant,amenity
55.6796537,12.5759776,Peder Oxe,restaurant,amenity
55.6795485,12.5759530,Bøf & Ost,restaurant,amenity
55.6807127,12.5832761,Cafe Victor,restaurant,amenity
55.6803781,12.5804521,Madklubben Grill,restaurant,amenity
55.6809107,12.5824969,La Vecchia Signora,restaurant,amenity
55.6807191,12.5828713,L'Alsace,restaurant,amenity
55.6790105,12.5805759,Mama Rosa,restaurant,amenity
55.6797140,12.5830136,Sam's Bar,pub,amenity
55.6808550,12.5727238,Dalle Valle,cafe,amenity
55.6813212,12.5932950,Scandic Front,hotel,tourism
55.6782361,12.5668224,Pub & Sport,pub,amenity
55.6753288,12.5458365,Meyer's Deli,deli,shop
55.6761571,12.5669727,The Square,hotel,tourism
55.6772300,12.5901520,Copenhagen Strand,hotel,tourism
55.6908139,12.5601406,Sebastopol,cafe,amenity
55.6633682,12.5632675,Copenhagen Island,hotel,tourism
55.6859945,12.5362006,California Frugt & Grønt,greengrocer,shop
55.6786581,12.5325728,The Old Irish Pub,bar,amenity
55.6751214,12.5721336,Club Mambo,nightclub,amenity
55.6773934,12.5677426,Kong Frederik,hotel,tourism
55.6763037,12.5644933,Jensen's Bøfhus Axeltorv,restaurant,amenity
55.6778757,12.5695321,La Galette,restaurant,amenity
55.6782280,12.5697430,L'education Nationale,restaurant,amenity
55.6781715,12.5680739,Dubrovnik,restaurant,amenity
55.6719610,12.5555508,Buddha Bar,pub,amenity
55.6717810,12.5548963,Barbar Bar,pub,amenity
55.6728896,12.5592297,Comfort Hotel Vesterbro,hotel,tourism
55.6767380,12.5674414,Vesuvio of Copenhagen,restaurant,amenity
55.6733149,12.5616617,Jensen's Bøfhus,restaurant,amenity
55.6668710,12.5977260,Deep,restaurant,amenity
55.6681601,12.5971417,Rimini,restaurant,amenity
55.6777413,12.5785538,Krog's Fiskerestaurant,restaurant,amenity
55.6753589,12.5727371,First Twentyseven,hotel,tourism
55.6811269,12.5741096,Ankara,restaurant,amenity
55.6779420,12.5768752,Lord Nelson,pub,amenity
55.6793725,12.5752015,Eros,restaurant,amenity
55.6793029,12.5743687,Samos,restaurant,amenity
55.6791314,12.5737580,Nova,restaurant,amenity
55.6787069,12.5727364,Shahi,restaurant,amenity
55.6786922,12.5732662,Charlie Scotts,pub,amenity
55.6691735,12.5802893,Cafe Langebro,pub,amenity
55.6748612,12.5643813,Copenhagen Visitor Centre,information,tourism
55.6904980,12.5441844,Safir Kebab,restaurant,amenity
55.6837238,12.5682539,Hotel Jørgensen,hostel,tourism
55.6845934,12.5661817,Ibsens Hotel,hotel,tourism
55.6810090,12.5806605,Zoo Bar,pub,amenity
55.6806132,12.5802876,Charlie's Bar,pub,amenity
55.6789513,12.5679230,Dessertdragens Kageværksted,confectionery,shop
55.6809684,12.5878215,Els,restaurant,amenity
55.6809061,12.5883161,Zeleste,restaurant,amenity
55.6805790,12.5888720,Klods Hans,bar,amenity
55.6792833,12.5738811,Italiano,restaurant,amenity
55.6745986,12.5615709,,parking,amenity
55.6798350,12.5613048,,parking,amenity
55.6780529,12.5803408,Wok On,restaurant,amenity
55.6826871,12.5745415,Restaurant Jacobsen,restaurant,amenity
55.6774884,12.5775062,Diamanten,cafe,amenity
55.6759653,12.5751782,Cafe Katz,cafe,amenity
55.6689142,12.5640943,DGI-byens Hotel,hotel,tourism
55.6772838,12.5769463,Marv & Ben,restaurant,amenity
55.6725796,12.5563501,Savoy,hotel,tourism
55.6734181,12.5553705,Chez Bruno,restaurant,amenity
55.6719584,12.5547149,Cafe Obelix,cafe,amenity
55.6719106,12.5562393,Le Basilic,restaurant,amenity
55.6707876,12.5610473,Apropos,restaurant,amenity
55.6690839,12.5573535,Ban Gaw,restaurant,amenity
55.6692654,12.5577022,Porn-Sak,restaurant,amenity
55.6750244,12.5589487,,post_box,amenity
55.6770342,12.5703318,Beijing,restaurant,amenity
55.6759526,12.5672190,The Scottish Pub,pub,amenity
55.6757244,12.5669495,Rosie McGee's,pub,amenity
55.6733045,12.5596734,Flora's Steakhouse,restaurant,amenity
55.6732568,12.5452292,La Fiesta Mexicana,restaurant,amenity
55.6756620,12.5330860,Cafe Phénix,cafe,amenity
55.6806320,12.5337297,La Vecchia Gastronomia Italiana,restaurant,amenity
55.6843632,12.5515978,Akropolis,restaurant,amenity
55.6841005,12.5514227,Nyu Sakura,restaurant,amenity
55.6847890,12.5524304,Avenue,hotel,tourism
55.6697141,12.5453535,Høeg's,cafe,amenity
55.6819882,12.5543323,Radio,restaurant,amenity
55.6762048,12.5659854,Tapashuset,restaurant,amenity
55.6793628,12.5685853,Sabine's Cafeteria,cafe,amenity
55.6771072,12.5694984,Brew Pub,pub,amenity
55.6772100,12.5736687,Nytorv,restaurant,amenity
55.6864430,12.5580523,Blågårds Apotek,cafe,amenity
55.6873787,12.5595118,Zafran,restaurant,amenity
55.6836930,12.5709974,Starbucks Frederiksborggade,cafe,amenity
55.6820201,12.5941964,Salt,restaurant,amenity
55.6812122,12.5917814,Hotel Sankt Annæ,hotel,tourism
55.6829148,12.5888985,Phoenix Copenhagen,hotel,tourism
55.6845384,12.5834327,Hotel Christian IV,hotel,tourism
55.6722331,12.5572803,Metropol,hotel,tourism
55.6799761,12.5319846,,parking,amenity
55.6847119,12.5667539,Kalaset,cafe,amenity
55.6844442,12.5660522,Pintxos,restaurant,amenity
55.6914483,12.5395657,Fata'Morgana,cafe,amenity
55.6747822,12.5786288,Teatermuseet,cafe,amenity
55.6724767,12.5553973,Lille Irma,supermarket,shop
55.6727937,12.5509072,Føtex,supermarket,shop
55.6693830,12.5540610,,post_box,amenity
55.6763307,12.5644427,Cafe Rene,cafe,amenity
55.6982541,12.5884906,,post_box,amenity
55.6966034,12.5807892,Hanoi,restaurant,amenity
55.6969991,12.5826341,,post_box,amenity
55.6818262,12.5712029,Sushi Nørregade,restaurant,amenity
55.6841991,12.5647608,Sticks'N'Sushi,restaurant,amenity
55.6843897,12.5673006,Cafe Munk,restaurant,amenity
55.6829182,12.5854059,Restaurant Koefoed,restaurant,amenity
55.6823201,12.5841755,Cantina,restaurant,amenity
55.6946260,12.5480370,Kvickly,supermarket,shop
55.6759943,12.5329286,Allegade 10,restaurant,amenity
55.6968212,12.5454223,,post_box,amenity
55.6964536,12.5353200,,post_box,amenity
55.6649758,12.5995936,,post_box,amenity
55.6588960,12.6066679,,post_box,amenity
55.6713197,12.5451112,Bertrams Hotel Guldsmeden,hotel,tourism
55.6935669,12.5477869,Jagtvejens Dyreklinik,veterinary,amenity
55.6808070,12.5673715,H.C. Ørsted,artwork,tourism
55.6712741,12.5671808,,post_box,amenity
55.6735983,12.5727118,,post_box,amenity
55.6829980,12.5719480,Irma,supermarket,shop
55.6810700,12.5726570,Netto,supermarket,shop
55.6855924,12.5392733,Kvickly,supermarket,shop
55.6933237,12.5322352,Irma,supermarket,shop
55.6941316,12.5318403,Meny,supermarket,shop
55.6967107,12.5375902,Netto,supermarket,shop
55.6677861,12.5437877,Vesterbro Bibliotek,library,amenity
55.6843424,12.5327494,,post_box,amenity
55.6731288,12.5604195,Kebabish,restaurant,amenity
55.6620550,12.5629528,McDonald's,fast_food,amenity
55.6622287,12.5626481,Sunset Boulevard,fast_food,amenity
55.6822975,12.5853568,Den Lille Fede,restaurant,amenity
55.6826427,12.5860671,Restaurant Vita,restaurant,amenity
55.6827296,12.5865208,Hereford Steak,restaurant,amenity
55.6841125,12.5856999,Royal Garden,restaurant,amenity
55.6844872,12.5876301,El Viejo Mexico,restaurant,amenity
55.6735459,12.5608024,Danske Bank,bank,amenity
55.6739594,12.5615539,Nordea,bank,amenity
55.6728177,12.5638981,,atm,amenity
55.6669820,12.5394430,,post_box,amenity
55.6685648,12.5572544,,post_box,amenity
55.6651852,12.5812276,Da Misto,fast_food,amenity
55.6940539,12.5318243,,post_box,amenity
55.6644660,12.5939152,Circle K,fuel,amenity
55.6598569,12.5993397,,post_box,amenity
55.6591891,12.6003948,Frihedens Kiosk,convenience,shop
55.6631054,12.6029735,,post_box,amenity
55.6629166,12.6022051,Espresso Coffee,cafe,amenity
55.6639302,12.6006404,Nykredit,bank,amenity
55.6985970,12.5761653,Bindia Indisk Mad Take Away Østerbro,restaurant,amenity
55.6836458,12.5786417,,drinking_water,amenity
55.6839761,12.5774308,Hesten og Løven,artwork,tourism
55.6833660,12.5807099,Viggo Hørup,artwork,tourism
55.6976437,12.5781018,Den Franske Cafe,cafe,amenity
55.6867256,12.5617007,Kaffesalonen,cafe,amenity
55.6871740,12.5621406,Sliders,restaurant,amenity
55.6757554,12.5604640,Open air,parking,amenity
55.6745260,12.5633101,Steno Apotek,pharmacy,amenity
55.6695947,12.5646074,Vestauranten,restaurant,amenity
55.6730432,12.5583695,Nordland,place_of_worship,amenity
55.6708191,12.5637437,Ansgar,hotel,tourism
55.6726976,12.5569343,Løven,hotel,tourism
55.6742830,12.5644224,Arbejdernes Landsbank,bank,amenity
55.6723589,12.5566275,Crown,hotel,tourism
55.6708934,12.5631637,Tiffany,hotel,tourism
55.6715774,12.5624497,Saga,hotel,tourism
55.6735974,12.5623411,,bureau_de_change,amenity
55.6720731,12.5619597,Hotel Du Nord,hotel,tourism
55.6719188,12.5625572,Copenhagen Star Hotel,hotel,tourism
55.6715251,12.5612494,Hotel Centrum,hotel,tourism
55.6743371,12.5620652,WesternUnion & Primex,bureau_de_change,amenity
55.6750740,12.5622772,Western Union,money_transfer,amenity
55.6745207,12.5624711,Merex,bureau_de_change,amenity
55.6726211,12.5607845,Hebron,restaurant,amenity
55.6723046,12.5627761,Missionshotellet Nebo,hotel,tourism
55.6726087,12.5616921,Comfort Hotel Excelsior,hotel,tourism
55.6718769,12.5611130,Andersen,hotel,tourism
55.6721982,12.5619427,Guldsmeden,fast_food,amenity
55.6765536,12.5617950,Mercur Hotel,hotel,tourism
55.6786130,12.5625860,Richmond Hotel,hotel,tourism
55.6775637,12.5612132,Avis,car_rental,amenity
55.6753493,12.5625227,Hertz,car_rental,amenity
55.6685937,12.5969145,Døgn Netto,supermarket,shop
55.6847597,12.5649941,Kong Arthur,hotel,tourism
55.6810855,12.5804647,The Moose,pub,amenity
55.6822476,12.5827205,Godt,restaurant,amenity
55.6945735,12.5947678,,toilets,amenity
55.6943158,12.5950504,,drinking_water,amenity
55.6873256,12.5932342,Comfort Hotel Esplanaden,hotel,tourism
55.6815478,12.5822074,Det Elektriske Hjørne,cafe,amenity
55.6692418,12.5791679,Aristo,restaurant,amenity
55.6669073,12.5763106,Bryggens Spisehus,cafe,amenity
55.6668195,12.5786055,fakta,supermarket,shop
55.6930908,12.5326769,,bicycle,shop
55.6859744,12.5569057,Blågårdens Bibliotek,library,amenity
55.6811920,12.5762820,Studenterhuset,cafe,amenity
55.6818471,12.5337513,,bicycle_parking,amenity
55.6807264,12.5490009,Bella Italia,fast_food,amenity
55.6844488,12.5541773,Temporada Tapasbodega,restaurant,amenity
55.6854075,12.5568466,Netto,supermarket,shop
55.6857123,12.5514147,Irma,supermarket,shop
55.6821764,12.5510945,Rema 1000,supermarket,shop
55.6739679,12.5915653,Cafe Wilder,cafe,amenity
55.6740554,12.5916958,Eiffel Bar,pub,amenity
55.6740667,12.5913858,Cafe Luna,cafe,amenity
55.6876216,12.5597898,Props Coffee Shop,cafe,amenity
55.6730765,12.5651545,Forex,bureau_de_change,amenity
55.6777040,12.5723429,JD,shoes,amenity
55.6771844,12.5727507,Københavns Byret,courthouse,amenity
55.6791033,12.5685320,Fantask,books,shop
55.6808576,12.5490603,Henrik Jonsbak,bakery,shop
55.6814563,12.5495147,Bodega 48,pub,amenity
55.6819972,12.5517552,,bicycle_parking,amenity
55.6783432,12.5726104,Jyske Bank,bank,amenity
55.6781640,12.5718510,,post_box,amenity
55.6867883,12.5505333,Sleep in Heaven,hostel,tourism
55.6594096,12.5859299,Jorden Rundt,kindergarten,amenity
55.6905757,12.5599645,Mexibar,nightclub,amenity
55.6943093,12.5705683,OK,fuel,amenity
55.6944927,12.5708568,Irma,supermarket,shop
55.6945038,12.5704511,La Vita,fast_food,amenity
55.6958385,12.5724364,Shabaz Ryesgade,cafe,amenity
55.6828339,12.5744665,Ricemarket,restaurant,amenity
55.6953457,12.5433560,Café Stefanshus,pub,amenity
55.6950405,12.5431939,,recycling,amenity
55.6936275,12.5424382,The Coffee Collective Kaffebar Jægersborggade,cafe,amenity
55.6934573,12.5476150,Kreta,restaurant,amenity
55.6979906,12.5934474,Adina Hotel Copenhagen,hotel,tourism
55.6828003,12.5503807,H & H,outdoor,shop
55.6711195,12.5457687,Restaurant Klubben,restaurant,amenity
55.6809781,12.5773893,"Det Teologiske Fakultet, Københavns Universitet",university,amenity
55.6828139,12.5303254,Skolen på Nyelandsvej,school,amenity
55.6714574,12.5928455,Irma,supermarket,shop
55.6748055,12.5979939,Cosi Fan Tutte,fast_food,amenity
55.6787261,12.5664620,Hotel SP34,hotel,tourism
55.6878560,12.5621548,,bench,amenity
55.6809339,12.5797502,7-Eleven,convenience,shop
55.6810813,12.5798685,Sjus Bar,bar,amenity
55.6759488,12.5742396,Copenhagen Downtown Hostel,hostel,tourism
55.6809434,12.5739275,Café Halvvejen,pub,amenity
55.6814812,12.5751577,,information,tourism
55.6813890,12.5750693,,bicycle_parking,amenity
55.6816527,12.5759730,40,bicycle_parking,amenity
55.6807460,12.5726484,,bicycle_parking,amenity
55.6973770,12.5526390,Dilans,fast_food,amenity
55.6990892,12.5567515,,bicycle_parking,amenity
55.6681840,12.5494450,Bang & Jensen,cafe,amenity
55.6857484,12.5683839,Københavns Cykelbørs,bicycle,amenity
55.6902076,12.5604811,Le Tour Cykler,bicycle,shop
55.6990715,12.5615518,,bicycle_parking,amenity
55.6632055,12.5421603,Vang & Bar,bar,amenity
55.6821226,12.5764493,Netto,supermarket,shop
55.6826005,12.5770954,Buch,hairdresser,shop
55.6823372,12.5772694,Bering Flowers,flowers,amenity
55.6664620,12.5529582,Kihoskh,convenience,shop
55.6660639,12.5441119,Enghave Apotek,pharmacy,amenity
55.6679441,12.5442682,Vega,nightclub,amenity
55.6734015,12.6066054,,bench,amenity
55.6733425,12.6066263,,bench,amenity
55.6921967,12.5575534,Møllegade Nærgenbrugsstation,recycling,amenity
55.6903753,12.5542069,,bicycle_parking,amenity
55.6894789,12.5531268,,toilets,amenity
55.6979303,12.5355183,,post_box,amenity
55.6690046,12.5808011,Schrøder Cykler,bicycle,shop
55.6741811,12.5870225,Knippelsbro,ferry_terminal,amenity
55.6722332,12.5807101,Det Kongelige Bibliotek,ferry_terminal,amenity
55.6813242,12.5761492,J.H. Wessel,artwork,tourism
55.6856108,12.5816055,H. C. Andersen,artwork,tourism
55.6609322,12.6181650,Øresunds Mini Marked,convenience,shop
55.6836750,12.5730280,Netto,supermarket,shop
55.6848840,12.5688980,Irma,supermarket,shop
55.6788191,12.5735431,Photografica,photo,shop
55.6784853,12.5743528,Paradis,ice_cream,shop
55.6989212,12.5793326,Gourmandiet,butcher,shop
55.6873712,12.5880529,Nyboder Mindestuer,museum,tourism
55.6972171,12.6002148,Langelinie outlet,outlet,shop
55.6959337,12.5805116,Moshi Moshi,clothes,shop
55.6962411,12.5736203,Romarin,restaurant,amenity
55.6987898,12.5787027,Crazy Chicken,fast_food,amenity
55.6854488,12.5862956,fakta,supermarket,shop
55.6851810,12.5866120,SuperBrugsen,supermarket,shop
55.6849310,12.5863920,Irma,supermarket,shop
55.6835484,12.5868453,Føtex,supermarket,shop
55.6860948,12.5838521,Føtex Food,supermarket,shop
55.6789247,12.5684396,Fantask,games,shop
55.6822824,12.5720569,Fiol,cafe,amenity
55.6821362,12.5740420,Hvide Lam,pub,amenity
55.6848551,12.5731619,,toilets,amenity
55.6750492,12.5314395,Café Funder,cafe,amenity
55.6758389,12.5673252,Espresso House,cafe,amenity
55.6765502,12.5693383,7-Eleven,convenience,shop
55.6779048,12.5804078,7-Eleven,convenience,shop
55.6735634,12.5666399,Nimb Brasserie,restaurant,amenity
55.6769720,12.5683639,Hard Rock Cafe,restaurant,amenity
55.6743171,12.5674776,Paafuglen,fast_food,amenity
55.6745975,12.5691868,Rasmus Klump Pandekagehus,fast_food,amenity
55.6742769,12.5503465,Famo 51,restaurant,amenity
55.6723741,12.5506713,Famo,restaurant,amenity
55.6881659,12.5602562,King of Kebab,fast_food,amenity
55.6637848,12.6049012,Amagerbro Apotek,pharmacy,amenity
55.6604719,12.6047227,Café Pelikan,cafe,amenity
55.6647417,12.5994220,Kareten,restaurant,amenity
55.6602349,12.6047223,Aldi,supermarket,shop
55.6629421,12.6054451,Føtex,supermarket,shop
55.6630825,12.6036117,Irma,supermarket,shop
55.6618793,12.6102958,fakta,supermarket,shop
55.6595505,12.6100812,Rema 1000,supermarket,shop
55.6791344,12.5943156,Nyhavn,ferry_terminal,amenity
55.6815102,12.5990606,Operaen,ferry_terminal,amenity
55.6833511,12.6060132,Holmen Nord,ferry_terminal,amenity
55.6703645,12.5763136,,atm,amenity
55.6809251,12.5736803,,bicycle_parking,amenity
55.6829634,12.5735280,Lagkagehuset,bakery,shop
55.6821656,12.5746651,7-Eleven,convenience,shop
55.6739921,12.5972675,Spiseloppen,restaurant,amenity
55.6740214,12.5973242,Loppen,nightclub,amenity
55.6752064,12.5971543,Irma,supermarket,shop
55.6693343,12.5402830,Døgn Netto,supermarket,shop
55.6737546,12.6031876,Morgenstedet,restaurant,amenity
55.6830865,12.5721223,McDonald's,fast_food,amenity
55.6842888,12.5694351,,toilets,amenity
55.6825046,12.5745879,Niels Brock,school,amenity
55.6827597,12.5715632,,information,tourism
55.6625397,12.5614937,,bicycle_parking,amenity
55.6788708,12.5307687,Rema 1000,supermarket,shop
55.6832600,12.5890100,1-2-3 Palægaragerne,fuel,amenity
55.6990296,12.5778361,,post_box,amenity
55.6883543,12.5726669,,post_box,amenity
55.6664454,12.5793374,,post_box,amenity
55.6664321,12.5793994,Islands Brygge Bibliotek,library,amenity
55.6820113,12.5614994,,post_box,amenity
55.6627219,12.6037813,,bicycle_parking,amenity
55.6635722,12.6021827,,bicycle_parking,amenity
55.6652546,12.6042310,Sundby Bibliotek,library,amenity
55.6651304,12.6043322,,bicycle_parking,amenity
55.6722296,12.5910258,,bicycle_parking,amenity
55.6765105,12.5691583,,bicycle_parking,amenity
55.6753063,12.5669861,,bicycle_parking,amenity
55.6736415,12.5715056,,bicycle_parking,amenity
55.6761802,12.5637400,,bicycle_parking,amenity
55.6918541,12.5573297,Kiin Kiin,restaurant,amenity
55.6989481,12.5794552,Gourmandiet by Night,restaurant,amenity
55.6691686,12.5542314,Siciliansk Is,cafe,amenity
55.6690548,12.5539577,Sort Kaffe og Vinyl,cafe,amenity
55.6717017,12.5532398,City Public Hostel,hostel,tourism
55.6756180,12.5667167,Burger King,fast_food,amenity
55.6643228,12.5836860,7-Eleven,convenience,shop
55.6763789,12.5698406,KFC,fast_food,amenity
55.6593734,12.5908661,,parking_entrance,amenity
55.6599369,12.5913030,,parking_entrance,amenity
55.6979594,12.5449822,Karrusellen,pub,amenity
55.6985800,12.5456210,Café Ægir,pub,amenity
55.6957911,12.5439692,Café Lille Peter,pub,amenity
55.6616576,12.5599029,Føtex,supermarket,shop
55.6612016,12.5606126,Silvan,doityourself,shop
55.6707953,12.5569449,Netto,supermarket,shop
55.6692157,12.5530946,La Neta Vesterbro,restaurant,amenity
55.6700149,12.5604567,Hverdagen,cafe,amenity
55.6706787,12.5607213,Carlton,cafe,amenity
55.6690128,12.5582528,Chicky Grill,fast_food,amenity
55.6683172,12.5568180,,atm,amenity
55.6679147,12.5563801,Fermentoren,bar,amenity
55.6660465,12.5535148,Cafe 33,bar,amenity
55.6665905,12.5532339,Itzi pitzi pizza,fast_food,amenity
55.6668763,12.5499389,Elite Købmand,convenience,shop
55.6670159,12.5489959,Kaffehjørnet,convenience,shop
55.6671430,12.5479089,Café Snork,pub,amenity
55.6676849,12.5445913,Pasha Kebab,fast_food,amenity
55.6677986,12.5441914,Ideal bar,nightclub,amenity
55.6697238,12.5457814,SuperBrugsen,supermarket,shop
55.6721352,12.5484315,Pho Saigon,cafe,amenity
55.6724096,12.5494857,7-Eleven,convenience,shop
55.6724365,12.5523209,Dannebrogs Kiosk,convenience,shop
55.6691803,12.5527998,Monni's Kiosk,convenience,shop
55.6672208,12.5534530,Café 42,bar,amenity
55.6662151,12.5524436,Bagelman,fast_food,amenity
55.6624481,12.5624631,,atm,amenity
55.6623254,12.5625232,Kiosk Bien,convenience,shop
55.6613814,12.5614725,,toilets,amenity
55.6682341,12.5511083,Café Sonja,cafe,amenity
55.6685277,12.5507322,Kiosk 1001 nat,convenience,shop
55.6683619,12.5501454,Mc Kluud,pub,amenity
55.6682661,12.5497023,Vesterbro Vinstue,bar,amenity
55.6687855,12.5514873,Det Sorte Træ,florist,shop
55.6687000,12.5521340,1001 nat,fast_food,amenity
55.6689815,12.5521728,La Foretta Pizzaria,fast_food,amenity
55.6601982,12.5727309,Netto,supermarket,shop
55.6653161,12.5576571,Je t’aime,restaurant,amenity
55.6949146,12.5434464,Stefanos Pizza,fast_food,amenity
55.6964520,12.5449450,Pronto Pizzaria 2,fast_food,amenity
55.6969787,12.5458449,Mae Pen,restaurant,amenity
55.6957202,12.5465089,Ninn's Kiosk,kiosk,shop
55.6926688,12.5516528,Loke Cykler,bicycle,shop
55.6950196,12.5428100,,toilets,amenity
55.6906927,12.5546220,Det Rene Glas,pub,amenity
55.6908003,12.5614037,Cafeen Funke,pub,amenity
55.6918897,12.5577446,Nærkøb,convenience,shop
55.6665740,12.5502824,Café Sweet Surrender,cafe,amenity
55.6675122,12.5481394,Riccos,cafe,amenity
55.6676181,12.5484159,Cafè Blomsten,pub,amenity
55.6692729,12.5496981,Riesen,bar,amenity
55.6675503,12.5553934,Café Grotten,pub,amenity
55.6763244,12.5699496,Ripley's Believe It or Not,museum,tourism
55.6768699,12.5685704,Politikens Boghal,books,shop
55.6772854,12.5693007,Cafè Guldhornene,bar,amenity
55.6773855,12.5694568,Heidi's Bier Bar,bar,amenity
55.6779133,12.5705635,The Australien Bar,bar,amenity
55.6779717,12.5707085,La Boucherie,bar,amenity
55.6785700,12.5720323,Angels Club,stripclub,amenity
55.6791818,12.5797403,Illum Bager,bakery,shop
55.6822933,12.5804369,Trykbar,bar,amenity
55.6798085,12.5912168,,toilets,amenity
55.6678797,12.5442723,,atm,amenity
55.6723222,12.5447664,Coop 365,supermarket,shop
55.6715577,12.5451415,Madsens kiosk & betting,convenience,shop
55.6712954,12.5449664,Emmerys,bakery,shop
55.6687572,12.5433236,Aldi,supermarket,shop
55.6673571,12.5451903,,taxi,amenity
55.6752462,12.5622382,7-Eleven,convenience,shop
55.6736119,12.5608471,,atm,amenity
55.6738751,12.5606057,La Dolce Vita,stripclub,amenity
55.6733254,12.5598628,Floras Café,cafe,amenity
55.6730196,12.5597708,City Pub,pub,amenity
55.6672890,12.5536167,Bella Gastronomia Italiana,fast_food,amenity
55.6674459,12.5550599,Café Sommersted,pub,amenity
55.6673882,12.5555371,,convenience,shop
55.6686740,12.5565742,St. Pauli Minibar,bar,amenity
55.6686151,12.5564242,Salon Vivian,hairdresser,shop
55.6689489,12.5571157,Trust,convenience,shop
55.6696351,12.5582526,Freddys Bar,bar,amenity
55.6697425,12.5581224,Café Centralen,bar,amenity
55.6702253,12.5580263,Hos Tove,bar,amenity
55.6704837,12.5572170,International Kiosk,convenience,amenity
55.6627511,12.5621109,,taxi,amenity
55.6864665,12.5500587,Tjili Pop 2,bar,amenity
55.6870129,12.5479826,gilt,bar,amenity
55.6820864,12.5572448,Marathon Sport,sports,shop
55.6898768,12.5634116,Gavlen,cafe,amenity
55.6899608,12.5586143,The Laundromat Café,laundry,amenity
55.6912247,12.5592520,Rust,nightclub,amenity
55.6904387,12.5604921,Plenum,cafe,amenity
55.6894934,12.5580802,Selfish,fast_food,amenity
55.6854535,12.5522738,Scarpetta,restaurant,amenity
55.6719051,12.5912305,SuperBrugsen,supermarket,shop
55.6703637,12.5957099,Ravelinen,restaurant,amenity
55.6735371,12.5919520,Letz Sushi Christianshavn,restaurant,amenity
55.6716374,12.5925100,Spicey Kitchen,restaurant,amenity
55.6852835,12.5532011,Track Bike Shop,bicycle,shop
55.6712683,12.5932027,Divane Kebab,fast_food,amenity
55.6781858,12.6024276,,recycling,amenity
55.6758158,12.6000522,Cafe Høvlen,bar,amenity
55.6748442,12.5988301,Cykelværksted,bicycle,shop
55.6723347,12.5498081,Café Guldregn,pub,amenity
55.6718007,12.5523627,Hotel West,hotel,tourism
55.6702546,12.5525454,,fountain,amenity
55.6724844,12.5633705,7-Eleven,convenience,shop
55.6689128,12.5528583,Konya Import,gift,shop
55.6702911,12.5605112,,fountain,amenity
55.6727828,12.5504285,Telekæden,mobile_phone,shop
55.6727995,12.5506483,Matas,chemist,shop
55.6709930,12.5588804,Plane E,erotic,shop
55.6720730,12.5480658,Burger Palace,fast_food,amenity
55.6717251,12.5458974,Märkbar,pub,amenity
55.6721637,12.5636709,Jernbanecafeen,pub,amenity
55.6697942,12.5472998,Netto,supermarket,shop
55.6737913,12.5918902,Tinos Pizzeria,fast_food,amenity
55.6736355,12.5906539,Fingerbøllet,pub,amenity
55.6733798,12.5905789,Hos Nicola,fast_food,amenity
55.6723928,12.5900587,Asador,restaurant,amenity
55.6716209,12.5899698,Sofiekælderen,cafe,amenity
55.6719928,12.5905788,Kanal Bodega,pub,amenity
55.6711746,12.5924079,Kafe Falken,pub,amenity
55.6727642,12.5903509,Bluehouse,fast_food,amenity
55.6722489,12.5920615,Christianshavns Apotek,pharmacy,amenity
55.6701414,12.5862015,Cafe Rabes Have,cafe,amenity
55.6726084,12.5514507,Bolia.com,furniture,shop
55.6723997,12.5493640,Jasmin Marked,convenience,shop
55.6725742,12.5545415,West House,clothes,shop
55.6723936,12.5484788,Classic Cykler,bicycle,shop
55.6725338,12.5490955,Frisør Jenny & Shop,hairdresser,shop
55.6726322,12.5539234,Sportigan,sports,shop
55.6710407,12.5905666,,recycling,amenity
55.6712570,12.5909995,Christianshavns Beboerhus,cafe,amenity
55.6731130,12.5904109,Vandkunsten sandwich,fast_food,amenity
55.6679707,12.5496161,Birna,clothes,shop
55.6687332,12.5512988,Rude,clothes,shop
55.6680251,12.5498199,Invasion,clothes,shop
55.6681494,12.5502595,Kyoto,clothes,shop
55.6697919,12.5510538,,post_box,amenity
55.6691053,12.5525812,Isted Grill,fast_food,amenity
55.6684231,12.5509642,Salon Jasmin,hairdresser,shop
55.6684148,12.5498133,Starco Frisør,hairdresser,shop
55.6814399,12.5637801,Copenhagen Bike Rental,bicycle_rental,amenity
55.6727918,12.5638227,,toilets,amenity
55.6727052,12.5640142,Internet Mail Chat,internet_cafe,amenity
55.6728504,12.5640303,Western Union,money_transfer,amenity
55.6726205,12.5645077,Kort & Godt,convenience,shop
55.6726417,12.5640947,Axel Music,audio_video,shop
55.6726841,12.5638801,Planet Video,audio_video,shop
55.6729533,12.5647545,Sunset Boulevard,fast_food,amenity
55.6728293,12.5656611,,post_box,amenity
55.6723846,12.5639123,"Københavns Politis ekspedition, Hovedbanegården",police,amenity
55.6729351,12.5652856,Kort & Godt,convenience,shop
55.6718039,12.5583805,Cofoco,restaurant,amenity
55.6737032,12.5500290,Les trois cochons,restaurant,amenity
55.6857251,12.5890942,Vespa,restaurant,amenity
55.6780986,12.5917974,Tony's,restaurant,amenity
55.6841610,12.5877522,Madklubben,restaurant,amenity
55.6817859,12.5883393,MASH Steakhouse,restaurant,amenity
55.6805112,12.5485539,Købmand,convenience,shop
55.6729517,12.5580495,Gundtoft,clothes,shop
55.6728203,12.5573515,Only,clothes,shop
55.6732340,12.5592940,Annabell,clothes,shop
55.6728638,12.5575754,Flash,clothes,shop
55.6734550,12.5603770,Sportmaster,sports,shop
55.6733944,12.5601909,Humac,computer,shop
55.6708296,12.5462526,Grusgraven,pub,amenity
55.6699886,12.5454372,Enghave Motorcykler,motorcycle,shop
55.6693503,12.5451263,Eng Kiosken,convenience,shop
55.6698494,12.5454426,Just Cut,hairdresser,shop
55.6723452,12.5541383,Blue Tapper,clothes,shop
55.6656274,12.5495946,Dyrehaven,cafe,amenity
55.6742692,12.5504690,T.P. Musik Marked,audio_video,shop
55.6740877,12.5513488,Larsen's Plaz,pub,amenity
55.6739725,12.5515293,Central Hotel & Cafe,cafe,amenity
55.6743962,12.5499701,Kluns,clothes,shop
55.6742087,12.5507802,Luxor Kiosk,convenience,shop
55.6740544,12.5515366,Møntvask,laundry,shop
55.6741179,12.5511879,Salon Arten,hairdresser,shop
55.6741784,12.5509089,Autometer,clothes,shop
55.6743236,12.5501847,Pizzeria Ciao Ciao,fast_food,amenity
55.6977348,12.5529712,Brødkunsten,bakery,shop
55.6897381,12.5602229,Kattens kælder,pub,amenity
55.6946760,12.5489730,Sankt Stefans Apotek,pharmacy,amenity
55.6693010,12.5534142,Kitsch,clothes,shop
55.6693504,12.5535350,Rio,hairdresser,shop
55.6692362,12.5531893,Spar Dame,convenience,shop
55.6711563,12.5552970,Absalon Damperen,kindergarten,amenity
55.6694705,12.5546951,Ekely,gallery,tourism
55.6696331,12.5544432,Skippers Bodega,pub,amenity
55.6694200,12.5545254,Donn Ya Doll,clothes,shop
55.6695617,12.5550536,Deres Frisør Salon,hairdresser,shop
55.6691521,12.5535135,Probe 2000,hairdresser,shop
55.6724511,12.5488490,Nucreation,clothes,shop
55.6720125,12.5477922,Fontana di Trevi,fast_food,amenity
55.6718310,12.5463545,East West Food,convenience,shop
55.6677468,12.5488114,Salon Anis,hairdresser,shop
55.6677025,12.5487216,Kebabistan,fast_food,amenity
55.6677468,12.5489026,Kiosk,convenience,shop
55.6717856,12.5461239,Mønt Vask,laundry,shop
55.6721456,12.5474757,Urban Clothing,clothes,shop
55.6688571,12.5487739,Café Erik,pub,amenity
55.6679993,12.5488611,Thai Supermarket,convenience,shop
55.6987309,12.5812029,Holstein Bodega,bar,amenity
55.6985159,12.5811113,Taormina,restaurant,amenity
55.6712199,12.5446647,WB,shoes,shop
55.6712774,12.5460649,Salon Ghina,hairdresser,shop
55.6710016,12.5429382,Salon De Choix,hairdresser,shop
55.6695214,12.5400724,Bob's Hytte,pub,amenity
55.6712229,12.5447720,Salon Bagdad,hairdresser,shop
55.6715661,12.5451843,Moughal Food Store,convenience,shop
55.6709507,12.5436884,Café Ludwigsen,bar,amenity
55.6712683,12.5448632,Vesterbro Slagter,butcher,shop
55.6721538,12.5495867,Skaleys,hairdresser,shop
55.6743653,12.5823025,Dansk Jødisk Museum,museum,tourism
55.6840010,12.5932162,Rytterstatuen af Frederik den V,artwork,tourism
55.6661324,12.5392671,WAUW CAPAW,convenience,shop
55.6654768,12.5388859,Cafe Bryggeriet,bar,amenity
55.6641007,12.5426035,Minimarked,convenience,shop
55.6641604,12.5426376,Orientalsk Steak House,fast_food,amenity
55.6656284,12.5754894,Ponte Vecchio,restaurant,amenity
55.6664542,12.5765463,Nabilo Pizzeria & Grill,fast_food,amenity
55.6675771,12.5780731,Café Haraldsborg,bar,amenity
55.6678829,12.5784998,Hiko Pizza & Sandwich,fast_food,amenity
55.6678361,12.5785286,Isbjørnen,bar,amenity
55.6660221,12.5520972,Møntvask,laundry,shop
55.6668432,12.5485338,Recycles,bicycle,shop
55.6658066,12.5438192,Enghave Minimarked,convenience,shop
55.6690764,12.5500661,Det Lille Øresund,bar,amenity
55.6681619,12.5470067,Møntvask,laundry,shop
55.6663792,12.5473684,Vogelkop,guest_house,tourism
55.6657800,12.5439705,Enghave Pizza - Spicy Gryde,fast_food,amenity
55.6659195,12.5503317,Mad & Kaffe,cafe,amenity
55.6663913,12.5482482,Tanzania,artwork,tourism
55.6668994,12.5471919,Arbejdernes Landsbank,bank,amenity
55.6739758,12.5616378,,atm,amenity
55.6700915,12.5399119,Online Kiosk,convenience,shop
55.6735220,12.5505710,Madam Ras,clothes,shop
55.6735190,12.5502598,Thiemers Magasin,books,shop
55.6737912,12.5523680,La Mer,hairdresser,shop
55.6735129,12.5500345,Blomsterhjørnet,florist,shop
55.6726054,12.5541469,Hair Kompagniet,hairdresser,shop
55.6726250,12.5540305,Nordic Nesting,yes,shop
55.6723120,12.5523037,Antikvariat 2B,books,shop
55.6724833,12.5527478,PhotoCare,photo,amenity
55.6730505,12.5501133,Trés Bien,clothes,shop
55.6721758,12.5504476,Frisør Why Not,hairdresser,shop
55.6727991,12.5518294,Mathieu,hairdresser,shop
55.6652359,12.5666997,,bicycle_parking,amenity
55.6959581,12.5736990,,bicycle_parking,amenity
55.6655498,12.5578926,nihola cykler,bicycle,shop
55.6652295,12.5670230,,parking_entrance,amenity
55.6653284,12.5671999,,parking_entrance,amenity
55.6813004,12.5758935,Tycho Brahe,artwork,tourism
55.6814245,12.5755539,Water Art,artwork,tourism
55.6816530,12.5755720,Vaisenhus Apotek,pharmacy,amenity
55.6811170,12.5760384,Arnold Busck,books,shop
55.6812785,12.5759125,døp,fast_food,amenity
55.6691627,12.5529581,,bicycle_parking,amenity
55.6689797,12.5529890,,bicycle_parking,amenity
55.6672272,12.5546024,,bicycle_parking,amenity
55.6674079,12.5610369,,bicycle_parking,amenity
55.6677549,12.5582387,,bicycle_parking,amenity
55.6716988,12.5640034,Kabul marked,convenience,shop
55.6713692,12.5643395,China Town Market,convenience,shop
55.6707510,12.5620776,,bicycle_parking,amenity
55.6711019,12.5618362,Halmtorvets Cykler,bicycle,shop
55.6710735,12.5634514,Ariana Market,convenience,shop
55.6820601,12.5836815,,toilets,amenity
55.6780957,12.5716619,,toilets,amenity
55.6806730,12.5877420,,bicycle_parking,amenity
55.6806295,12.5879520,Nyhavn,toilets,amenity
55.6822430,12.5333550,Frederiksberg centeret,mall,shop
55.6692729,12.5749634,,parking_entrance,amenity
55.6727272,12.5510216,,bicycle_parking,amenity
55.6726417,12.5496429,Europæiske Rejseforsikring -Gavlmaleri,artwork,tourism
55.6669605,12.6153144,Saranda Pizza,fast_food,amenity
55.6667108,12.6153712,fakta,supermarket,shop
55.6666562,12.6145828,,post_box,amenity
55.6651131,12.6097924,Netto,supermarket,shop
55.6721516,12.5547820,,bicycle_parking,amenity
55.6794098,12.5909843,Hotel Bethel,hotel,tourism
55.6775061,12.5894719,Hotel Maritime,hotel,tourism
55.6773527,12.5889809,Hotel City,hotel,tourism
55.6703765,12.5521852,,picnic_site,tourism
55.6703245,12.5530905,,picnic_site,tourism
55.6596130,12.6190902,Netto,supermarket,shop
55.6703824,12.5578189,Mujaffa's Shawarma,fast_food,amenity
55.6632291,12.6018113,SengeSpecialisten,bed,shop
55.6736309,12.6027960,Indkøbscentralen,convenience,shop
55.6685640,12.6070239,Meny,supermarket,shop
55.6637302,12.5851872,,compressed_air,amenity
55.6755018,12.5687239,,compressed_air,amenity
55.6812668,12.5645148,Ørsted Ølbar & Cafe,pub,amenity
55.6719575,12.5575483,Mikkeller Bar Viktoriagade,bar,amenity
55.6783527,12.5324017,,bicycle_parking,amenity
55.6788127,12.5313704,Western Saloon,pub,amenity
55.6712132,12.5765936,,post_box,amenity
55.6717097,12.5753001,Ludv. Bjørns Vinhandel,beverages,shop
55.6690711,12.5524679,Cykelfabrikken,bicycle,shop
55.6722258,12.5549738,Herakles springvand,fountain,amenity
55.6738608,12.5548518,,fountain,amenity
55.6698723,12.5530313,,bicycle_parking,amenity
55.6698477,12.5525968,,bicycle_parking,amenity
55.6881724,12.5996322,Nordre Toldbod,ferry_terminal,amenity
55.6837826,12.5870070,Netto,supermarket,shop
55.6678014,12.5974628,Paradis,ice_cream,amenity
55.6660496,12.5991415,,vacant,shop
55.6669858,12.5982221,Elite købmand Amagerbrogade,convenience,shop
55.6670446,12.5981362,Casa Nostra,fast_food,amenity
55.6671081,12.5980826,Frisør Nuwell,hairdresser,shop
55.6672901,12.5979293,Foodie,fast_food,amenity
55.6657521,12.5436222,Le Sandwicherie,fast_food,amenity
55.6655669,12.5434042,Enghave Cykler,bicycle,shop
55.6640420,12.5425786,Bagerdygtigt Enghave,bakery,shop
55.6636955,12.5418859,,bicycle_parking,amenity
55.6633027,12.5420331,Cafe Hytten,pub,amenity
55.6643278,12.5422400,Hair By Dunja,hairdresser,shop
55.6650449,12.5426155,Salon Oui Oui,hairdresser,shop
55.6652688,12.5427496,Kirkens Genbrug,charity,shop
55.6668974,12.5431343,Venus med Æblet,artwork,tourism
55.6615411,12.5698922,,post_box,amenity
55.6670324,12.5778221,Saxkjær,hairdresser,shop
55.6667034,12.5780734,The Sandwich,fast_food,amenity
55.6660456,12.5793694,Vedi Optik,optician,shop
55.6659911,12.5788659,Kiosk,convenience,shop
55.6653690,12.5811720,Danske Bank,bank,amenity
55.6653780,12.5812262,,atm,amenity
55.6664002,12.5785699,,taxi,amenity
55.6670410,12.5782592,Deleurans Blomster,florist,shop
55.6671536,12.5784138,Vimo Kiosken,convenience,shop
55.6673122,12.5768003,,bbq,amenity
55.6684525,12.5792029,Hatoba,restaurant,amenity
55.6689368,12.5798311,Islands Brygge Apotek,pharmacy,amenity
55.6691371,12.5801082,Hair by Dahl,hairdresser,shop
55.6694533,12.5800867,,post_box,amenity
55.6691513,12.5804833,Toscana no due,fast_food,amenity
55.6713956,12.5743568,,clothes,shop
55.6688777,12.5738807,,taxi,amenity
55.6736923,12.5560021,Kennedys Irish Bar,bar,amenity
55.6734238,12.5542471,Jupiter Cykler,bicycle,shop
55.6724995,12.5571585,Uludag Kebab,fast_food,amenity
55.6833500,12.5842870,Borgergade P-Hus,parking,amenity
55.6786445,12.5801492,Danske Bank,bank,amenity
55.6905436,12.5755799,Sticks 'n' sushi,restaurant,amenity
55.6832393,12.5849435,F24,fuel,amenity
55.6825300,12.5819410,Aldi,supermarket,shop
55.6678738,12.5412691,,picnic_site,tourism
55.6677834,12.5410640,,toilets,amenity
55.6675834,12.5410920,,picnic_site,tourism
55.6673704,12.5432517,,picnic_site,tourism
55.6677368,12.5411878,,drinking_water,amenity
55.6668998,12.5599965,Inco,supermarket,shop
55.6641818,12.5945807,Frisør Zapp,hairdresser,shop
55.6710092,12.5611931,N.OBU,restaurant,amenity
55.6708238,12.5583466,Club 34,stripclub,amenity
55.6709081,12.5585764,Restaurant Shezan,restaurant,amenity
55.6709295,12.5593550,Solodaritet,clothes,shop
55.6711423,12.5593279,Madame Pim,stripclub,amenity
55.6728374,12.5619246,Maxim,stripclub,amenity
55.6730876,12.5616547,,gift,shop
55.6731940,12.5612145,Cube,bar,amenity
55.6733814,12.5616906,,atm,amenity
55.6726519,12.5636130,,post_box,amenity
55.6668732,12.5468939,Brød,bakery,shop
55.6675538,12.5467792,Luxor Døgnkiosk,convenience,amenity
55.6675555,12.5466755,,hairdresser,shop
55.6654984,12.5533812,,tattoo,shop
55.6672970,12.5477577,Kaffe Plantagen,cafe,amenity
55.6673995,12.5477341,Stempel Bar & Kitchen,bar,amenity
55.6685675,12.5508356,Bagerdygtigt,bakery,shop
55.6725506,12.5503359,Thiele,optician,shop
55.6725817,12.5543879,3Butikken,mobile_phone,shop
55.6725007,12.5551303,Synoptik,optician,shop
55.6719754,12.5556153,Paradis,ice_cream,amenity
55.6725441,12.5574773,7-Eleven,convenience,shop
55.6723682,12.5572349,Hotel Viktoria,hotel,tourism
55.6738322,12.5614301,,post_box,amenity
55.6743035,12.5625880,Scoop,shoes,shop
55.6744467,12.5630674,,bureau_de_change,amenity
55.6744260,12.5629833,Synoptik,optician,shop
55.6747359,12.5639085,Cafè Royal,restaurant,amenity
55.6749061,12.5645113,Lagkagehuset,bakery,shop
55.6748639,12.5645872,,post_box,amenity
55.6749618,12.5646460,Souvenir Gift Shop,gift,shop
55.6749862,12.5647438,Unisport.dk,sports,shop
55.6750176,12.5648347,,atm,amenity
55.6754287,12.5644398,Axelborg Bodega,restaurant,amenity
55.6758760,12.5645675,,toilets,amenity
55.6763802,12.5640082,City Bikes,bicycle_rental,amenity
55.6761326,12.5695853,,taxi,amenity
55.6762460,12.5699096,,post_box,amenity
55.6759291,12.5711851,Spar nord,bank,amenity
55.6758828,12.5713205,,atm,amenity
55.6757728,12.5715987,Oscar,cafe,amenity
55.6762844,12.5713156,Drugstore,convenience,shop
55.6764611,12.5713541,Villa Vino,bar,amenity
55.6767843,12.5720495,Domhusets Smørrebrød,restaurant,amenity
55.6767570,12.5740838,,post_box,amenity
55.6773628,12.5758121,,post_box,amenity
55.6777174,12.5770967,,ice_cream,shop
55.6779554,12.5807439,K Cocktailbar,bar,amenity
55.6780898,12.5799893,,taxi,amenity
55.6787126,12.5800550,Espresso House,cafe,amenity
55.6799417,12.5847635,Telenor,mobile_phone,shop
55.6808060,12.5880250,Harbour Grill,restaurant,amenity
55.6805239,12.5891305,Nyhavn 17,restaurant,amenity
55.6806409,12.5893076,Turs Havneproviant,convenience,shop
55.6809094,12.5895543,Nyhavn Tattoo,tattoo,shop
55.6804465,12.5893743,Rajissimo,ice_cream,shop
55.6799914,12.5917501,Told & snaps,restaurant,amenity
55.6790545,12.5911284,Nyhavn bakery & cafe,bakery,shop
55.6789623,12.5910624,Café Mønten,bar,amenity
55.6788080,12.5909080,Damindra,restaurant,amenity
55.6787250,12.5904021,Holberg No 19,cafe,amenity
55.6789988,12.5907062,,post_box,amenity
55.6798100,12.5918566,La Sirène,restaurant,amenity
55.6796573,12.5948384,Café og Restaurant Ofelia,restaurant,amenity
55.6853951,12.5913921,Café Oscar,cafe,amenity
55.6859579,12.5918956,Medicinsk Museion,museum,tourism
55.6873553,12.5929855,Café Petersborg,restaurant,amenity
55.6873169,12.5912553,Bistro Boheme,restaurant,amenity
55.6872437,12.5907062,Toldbod Bodega,cafe,amenity
55.6874159,12.5904277,Let Køb,convenience,shop
55.6868763,12.5897302,Emmerys,bakery,shop
55.6875403,12.5850836,Kokkeriet,restaurant,amenity
55.6863474,12.5839688,Culture box,nightclub,amenity
55.6808350,12.5734160,Democratic Coffee,cafe,amenity
55.6803897,12.5732256,Café Paludan,books,amenity
55.6775685,12.5726727,,toilets,amenity
55.6777216,12.5722291,,atm,amenity
55.6775030,12.5714290,Dedicated,clothes,shop
55.6774581,12.5717459,Strøgshawarma,fast_food,amenity
55.6768861,12.5704760,Lagkagehuset,bakery,shop
55.6770967,12.5705418,Viking Souvenirs,gift,shop
55.6767719,12.5698547,Shawarma Grillhouse,fast_food,amenity
55.6760509,12.5670805,Flying Tiger Copenhagen,variety_store,shop
55.6741311,12.5641878,Tele Station,mobile_phone,shop
55.6748243,12.5661037,A Hereford Beefstouw,restaurant,amenity
55.6754915,12.5662488,The Old Irish Pub,bar,amenity
55.6755287,12.5664591,The Old English Pub,pub,amenity
55.6819458,12.5839417,7-Eleven,convenience,shop
55.6822504,12.5853881,Den Røde Baron,nightclub,amenity
55.6815566,12.5842922,Natcafeen,bar,amenity
55.6816072,12.5841215,Duke,nightclub,amenity
55.6816747,12.5839889,The Bagel Co,fast_food,amenity
55.6816089,12.5832999,Restaurant Grønnegade,restaurant,amenity
55.6818906,12.5832644,The Coffee Factory,cafe,amenity
55.6819405,12.5831544,Pizza Huset,fast_food,amenity
55.6821592,12.5822351,Andy's Bar,bar,amenity
55.6825061,12.5821790,Pastis,restaurant,amenity
55.6823061,12.5816691,Cucaracha Bar,bar,amenity
55.6818705,12.5825994,Basement,bar,amenity
55.6812694,12.5810346,LaBar,bar,amenity
55.6801167,12.5824466,Døgn Netto,supermarket,shop
55.6812502,12.5794331,Cafe Rex,alcohol,amenity
55.6810096,12.5786867,Bo-Bi Bar,bar,amenity
55.6805487,12.5771236,Hornsleth,bar,amenity
55.6799188,12.5764619,Sole D Italia,restaurant,amenity
55.6800196,12.5756472,Huks Fluks,cafe,amenity
55.6797205,12.5754643,Le Pavé,restaurant,amenity
55.6802116,12.5753919,Café G,fast_food,amenity
55.6800283,12.5745981,Den glade Gris,bar,amenity
55.6791826,12.5741546,Joe & The Juice,cafe,amenity
55.6786120,12.5734840,Konditori La Glace,bakery,amenity
55.6786314,12.5738619,Baresso Vimmelskaftet,cafe,amenity
55.6788760,12.5733120,CPH Ink,tattoo,shop
55.6786419,12.5725474,Sandwich Pigen,fast_food,amenity
55.6722208,12.5553189,,toilets,amenity
55.6722750,12.5548829,,post_box,amenity
55.6717350,12.5547646,Skammekrogen,cafe,amenity
55.6716843,12.5546478,Lundgren V.I.P,cafe,amenity
55.6681614,12.5787664,Bryggen 11,ice_cream,shop
55.6687378,12.5795676,TS Smørrebrød,fast_food,amenity
55.6669835,12.5781469,Tiger,variety_store,shop
55.6640681,12.5797543,,laundry,shop
55.6656054,12.5783651,Frugtkælderen,greengrocer,shop
55.6641557,12.5832840,Jimmy Berger,glaziery,shop
55.6652319,12.5782925,Lunds Auto,car,shop
55.6634307,12.5820481,,laundry,shop
55.6645500,12.5837130,Hårcafeen,hairdresser,shop
55.6656683,12.5784842,Smooties,beverages,shop
55.6654831,12.5786331,Cafe Alma,cafe,amenity
55.6644820,12.5839106,Artillericafeen,pub,amenity
55.6665935,12.5953849,Klip & Cut,hairdresser,shop
55.6662596,12.5962904,Salon Hair Bar,hairdresser,shop
55.6660224,12.5951072,Absalon Antik,antiques,shop
55.6661823,12.5951535,Alex Cykler,bicycle,shop
55.6658299,12.5950552,F.B. Electronic,electronics,shop
55.6661176,12.5972873,Shamyat,bakery,shop
55.6651654,12.5994759,Latini,fast_food,amenity
55.6653097,12.5991680,,kiosk,shop
55.6656607,12.5994898,Café Amager,cafe,amenity
55.6653317,12.5990657,Salon Miami,hairdresser,shop
55.6657798,12.5993405,Ama'r City Cykler,bicycle,shop
55.6652694,12.5993459,Director's Cut,hairdresser,shop
55.6652977,12.5992162,Massimo Pizzeria,fast_food,amenity
55.6657036,12.5994450,Hotel Amager,hotel,tourism
55.6659527,12.5987067,Olivers Salon,hairdresser,shop
55.6666692,12.5986325,Bacher & Schilder,clothes,shop
55.6661025,12.5985614,Amager Kebab 2001,fast_food,amenity
55.6663112,12.5983676,Antikvariatet,books,shop
55.6669612,12.5977166,Sam Cykler,bicycle,shop
55.6680626,12.5971879,Salon Nilsson,hairdresser,shop
55.6676188,12.5970850,Dan's TV-Hifi Center,hifi,shop
55.6670146,12.5976723,Scharff,hairdresser,shop
55.6683085,12.5960401,Diskovski Blagoja,hairdresser,shop
55.6682928,12.5959519,Louies Vinstue,bar,amenity
55.6681660,12.5962770,Cykelsmeden,bicycle,shop
55.6671947,12.5974803,Den Danske Gryde,fast_food,amenity
55.6682339,12.5963136,Danmark,babycart,shop
55.6670669,12.5976143,Unik Optik,optician,shop
55.6673671,12.5978238,,laundry,shop
55.6678470,12.5973691,2nd by Nutid,charity,shop
55.6643977,12.6007576,Kalles Cykler,bicycle,shop
55.6643168,12.6008112,Amager Klip,hairdresser,shop
55.6629122,12.6020663,Consul Solcenter,solarium,amenity
55.6627274,12.6023720,Profil Optik,optician,shop
55.6616148,12.6037206,Amager Phone Center,mobile_phone,shop
55.6622602,12.6030042,AudioNova,hearing_aids,shop
55.6620244,12.6032723,Orient Guld & Sølv,jewelry,shop
55.6621822,12.6030810,KBH DeLuxe,clothes,shop
55.6615580,12.6037910,Vagabondos Pizzabar,fast_food,amenity
55.6613556,12.6035598,Thiele,optician,shop
55.6603425,12.6049180,Casino World,gambling,amenity
55.6597023,12.6042446,Ting Marked,greengrocer,shop
55.6598789,12.6044012,Sund Sandwich,fast_food,amenity
55.6599903,12.6051392,,atm,amenity
55.6600376,12.6050367,Nordea,bank,amenity
55.6595972,12.6044608,Power Play,electronics,shop
55.6602783,12.6053647,DanExchange,bureau_de_change,amenity
55.6603233,12.6053088,B&B Køkkener,kitchen,shop
55.6602541,12.6054043,Western Union,bank,amenity
55.6597908,12.6060128,Super Klip,hairdresser,shop
55.6598691,12.6059207,Røde Kors Butik,charity,shop
55.6598456,12.6059541,Begravelse Danmark,funeral_directors,shop
55.6598289,12.6059680,Downunder Tattoo,tattoo,shop
55.6595593,12.6062538,King Ya,fast_food,amenity
55.6590185,12.6069326,Santa Fé,hairdresser,shop
55.6592154,12.6067162,Sana Cykel,bicycle,shop
55.6591404,12.6067933,Viva Salon,hairdresser,shop
55.6588037,12.6067280,,waste_basket,amenity
55.6586460,12.6073773,Danske Bank,bank,amenity
55.6898694,12.5757128,Krebs' Skole,school,amenity
55.6719266,12.5762163,Men's Room,hairdresser,shop
55.6636370,12.6013698,Anni Jensen Guld & Sølv,jewelry,shop
55.6660118,12.5986473,Scandi Skilte,signs,shop
55.6663991,12.5982718,Giin Khao,restaurant,amenity
55.6831793,12.5676563,Cyklistbutikken 1905,bicycle,shop
55.6722942,12.5920924,Christianshavns Bibliotek,library,amenity
55.6755517,12.5700009,Rådhusbiblioteket,library,amenity
55.6945880,12.5817704,Østerbro Bibliotek,library,amenity
55.6989276,12.5408315,Esrom Kroen,pub,amenity
55.6775330,12.5777310,Kunstforeningen Gl Strand,arts_centre,amenity
55.6801651,12.5308257,Irma,supermarket,shop
55.6736404,12.5422861,,recycling,amenity
55.6707721,12.5332861,,recycling,amenity
55.6801435,12.5503107,,post_box,amenity
55.6663093,12.5960757,,post_box,amenity
55.6718120,12.5914089,SuperBrugsen Kiosk,convenience,shop
55.6724920,12.5915977,Lagkagehuset,bakery,shop
55.6719041,12.5920135,Brødflov,bakery,shop
55.6701818,12.5800651,CPH Living,hotel,tourism
55.6796400,12.5335150,,post_box,amenity
55.6983738,12.5428891,Casa Mia,fast_food,amenity
55.6976913,12.5434491,Jyske Bank,bank,amenity
55.6976337,12.5430666,Grill House Kebab,fast_food,amenity
55.6725305,12.5522969,Røverkøb,paint,shop
55.6703413,12.5803577,Restaurant Viva,restaurant,amenity
55.6854052,12.5675489,Brinck Elektronik,electronics,shop
55.6854010,12.5674727,,bicycle_parking,amenity
55.6813936,12.5641065,Tasty Bite,fast_food,amenity
55.6835714,12.5649389,La Fiorita,fast_food,amenity
55.6837431,12.5651800,Vincafeen Bibendum,cafe,amenity
55.6643788,12.5806315,Bryggens Pizzeria,fast_food,amenity
55.6715744,12.5452281,Guld & Sølv,jewelry,shop
55.6634731,12.6019124,UFO Kiosk,kiosk,shop
55.6714450,12.5722570,Yilans,convenience,shop
55.6829896,12.5861057,Landgreven P-Hus,parking,amenity
55.6748772,12.5477010,Butik Paradiss,erotic,shop
55.6698868,12.6002500,,bench,amenity
55.6697974,12.6001636,,bench,amenity
55.6699852,12.6003120,,bench,amenity
55.6707717,12.6013445,,bench,amenity
55.6703693,12.6003826,,bench,amenity
55.6700779,12.5995071,,bench,amenity
55.6702243,12.6000821,,bench,amenity
55.6711041,12.6018132,,bench,amenity
55.6709037,12.6013938,,bench,amenity
55.6737828,12.6027376,,toilets,amenity
55.6900791,12.5614392,Fælledvej Brandstation,fire_station,amenity
55.6865910,12.5877919,Fiskehuset Bolan,seafood,shop
55.6911220,12.5562250,Susu Sushi,restaurant,amenity
55.6945070,12.5493710,Lille Irma,supermarket,shop
55.6680524,12.5489710,,bicycle_parking,amenity
55.6689176,12.5489844,,bicycle_parking,amenity
55.6687669,12.5488546,,bicycle_parking,amenity
55.6715590,12.5482953,,bicycle_parking,amenity
55.6824933,12.5876994,Dagbladet Information,publisher,amenity
55.6769494,12.5684879,Ekstra Bladet,publisher,amenity
55.6809680,12.5782205,Gyldendal,publisher,amenity
55.6657468,12.5989142,,atm,amenity
55.6599733,12.5505519,,recycling,amenity
55.6676825,12.5501404,,bicycle_parking,amenity
55.6739395,12.5556939,,bench,amenity
55.6740060,12.5560896,,bench,amenity
55.6739698,12.5558801,,bench,amenity
55.6671954,12.5431371,,bench,amenity
55.6670818,12.5433591,,bench,amenity
55.6670413,12.5435740,,bench,amenity
55.6671265,12.5431296,,bench,amenity
55.6671521,12.5429960,,bench,amenity
55.6670618,12.5434735,,bench,amenity
55.6672107,12.5430606,,bench,amenity
55.6671766,12.5428642,,bench,amenity
55.6672713,12.5427386,,bench,amenity
55.6667283,12.5423534,,bench,amenity
55.6668224,12.5422337,,bench,amenity
55.6667198,12.5424021,,bench,amenity
55.6672200,12.5430101,,bench,amenity
55.6668009,12.5423612,,bench,amenity
55.6672257,12.5425992,,bench,amenity
55.6667782,12.5424930,,bench,amenity
55.6672964,12.5426145,,bench,amenity
55.6672878,12.5426633,,bench,amenity
55.6672011,12.5427325,,bench,amenity
55.6666841,12.5426285,,bench,amenity
55.6672363,12.5429359,,bench,amenity
55.6667592,12.5426272,,bench,amenity
55.6666398,12.5433358,,bench,amenity
55.6667116,12.5428991,,bench,amenity
55.6666426,12.5428797,,bench,amenity
55.6666751,12.5426820,,bench,amenity
55.6667373,12.5427611,,bench,amenity
55.6666510,12.5428278,,bench,amenity
55.6666565,12.5432403,,bench,amenity
55.6666755,12.5431231,,bench,amenity
55.6673974,12.5428408,,picnic_site,tourism
55.6790093,12.5470447,,parking,amenity
55.6790613,12.5469323,,parking_entrance,amenity
55.6603453,12.5623970,,parking_entrance,amenity
55.6616126,12.5649547,,parking_entrance,amenity
55.6948367,12.5434255,Stefanos Grønne Hjørne,greengrocer,shop
55.6979453,12.5431546,El Hassan,bicycle,shop
55.6937437,12.5479369,Aldi,supermarket,shop
55.6953805,12.5435353,Service Kiosk,kiosk,shop
55.6963740,12.5459820,Netto,supermarket,shop
55.6948942,12.5481930,Al-Basrha Marked,greengrocer,shop
55.6904070,12.5597090,Letz Sushi,restaurant,amenity
55.6947203,12.5495918,Top Star Mix,greengrocer,shop
55.6949463,12.5476915,Al-Kawther Minimarked,greengrocer,shop
55.6948495,12.5482601,Street-Cut,hairdresser,shop
55.6946580,12.5494930,Jagtvejens Blomster,florist,shop
55.6950589,12.5479618,Nørre Bodega,pub,amenity
55.6811086,12.5848423,Nordea,bank,amenity
55.6777425,12.5859958,Niels Juel,artwork,tourism
55.6738788,12.5744359,,post_box,amenity
55.6685577,12.5632953,,bench,amenity
55.6684063,12.5629548,,bench,amenity
55.6679132,12.5629600,,information,tourism
55.6685350,12.5634026,,picnic_site,tourism
55.6776662,12.6172346,,parking,amenity
55.6942552,12.5482944,Cafe Runddelen,pub,amenity
55.6943050,12.5494280,Cortado kaffebar,cafe,amenity
55.6979994,12.5358935,Café Under Hylden,pub,amenity
55.6611270,12.6203670,Aldi,supermarket,shop
55.6974178,12.5430382,,recycling,amenity
55.6990525,12.5410465,Døgnpost 105,vending_machine,amenity
55.6904168,12.5549480,,atm,amenity
55.6895620,12.5565870,Temple Bar,pub,amenity
55.6896089,12.5564531,,atm,amenity
55.6977714,12.5434391,,atm,amenity
55.6985281,12.5383349,KINGS SERVICE KIOSK,kiosk,shop
55.6654323,12.5780741,Wulff & Konstali,cafe,amenity
55.6704515,12.5522929,,bench,amenity
55.6704545,12.5524189,,bench,amenity
55.6711873,12.5533471,,bench,amenity
55.6712865,12.5533913,,bench,amenity
55.6712592,12.5533443,,bench,amenity
55.6712842,12.5536019,,bench,amenity
55.6712864,12.5534329,,bench,amenity
55.6712781,12.5536703,,bench,amenity
55.6712887,12.5534812,,bench,amenity
55.6712811,12.5536367,,bench,amenity
55.6712358,12.5533443,,bench,amenity
55.6712865,12.5535630,,bench,amenity
55.6712895,12.5535228,,bench,amenity
55.6712078,12.5533457,,bench,amenity
55.6779883,12.5632149,,bench,amenity
55.6756406,12.5455244,Rolsted Cykler,bicycle,shop
55.6916776,12.5766325,Byman Cykler,bicycle,shop
55.6596771,12.6108131,Ørnens Cykler,bicycle,shop
55.6755760,12.5459359,,bicycle_parking,amenity
55.6909616,12.5759970,,bicycle_parking,amenity
55.6607573,12.6116555,,bench,amenity
55.6710512,12.5781709,myKayak,boat_rental,amenity
55.6835730,12.5684612,,bicycle_parking,amenity
55.6857365,12.5658502,Larry vs Harry,bicycle,shop
55.6850457,12.5670935,Cykelstad,bicycle,shop
55.6846985,12.5666061,,bicycle_parking,amenity
55.6844622,12.5667234,,bicycle_parking,amenity
55.6831930,12.5680532,,bicycle_parking,amenity
55.6832096,12.5677971,,bicycle_parking,amenity
55.6831168,12.5664605,Max's Bike,bicycle,shop
55.6830440,12.5732840,Humac,electronics,shop
55.6839450,12.5721140,Lån & Spar Bank,bank,amenity
55.6822891,12.5707223,7-Eleven,convenience,shop
55.6988303,12.5604226,,climbing_wall,amenity
55.6955562,12.5510324,Døgnposten 108,vending_machine,amenity
55.6957878,12.5502193,Gastronomia Italiana 5,fast_food,amenity
55.6957346,12.5501595,K101 Frisør,hairdresser,shop
55.6643604,12.5967439,Cheungs Grill,fast_food,amenity
55.6782840,12.5738470,Next,clothes,shop
55.6816819,12.5598447,,fountain,amenity
55.6796492,12.5651623,,fountain,amenity
55.6815300,12.5602403,,fountain,amenity
55.6821757,12.5629626,Min Købmand,supermarket,shop
55.6879495,12.5601653,Beyti,fast_food,amenity
55.6680448,12.5546641,,vending_machine,amenity
55.6689659,12.5542998,,vending_machine,amenity
55.6684397,12.5542134,,vending_machine,amenity
55.6945011,12.5482907,7-Eleven,convenience,shop
55.6892219,12.5574424,7-Eleven,convenience,shop
55.6903974,12.5605754,7-Eleven,convenience,shop
55.6888362,12.5578023,Netto,supermarket,shop
55.6905424,12.5602583,Kaffeplantagen,cafe,amenity
55.6895156,12.5559980,SuperBrugsen,supermarket,shop
55.6923468,12.5521240,Accord,music,shop
55.6889134,12.5576278,Stereo Studio,music,shop
55.6932706,12.5336515,Aldi,supermarket,shop
55.6951782,12.5472556,Bog & Idé,books,shop
55.6936404,12.5334389,Borups Blomster,florist,shop
55.6936967,12.5321763,Det Gamle Posthus,pub,amenity
55.6919251,12.5383400,fakta,supermarket,shop
55.6929470,12.5347136,Indskudspubben,pub,amenity
55.6954261,12.5439351,Mønt Vaskeri,laundry,shop
55.6950421,12.5435864,Dimseriet,gift,shop
55.6958736,12.5459360,Vaskeri,laundry,shop
55.6958705,12.5444608,VinBaren,bar,amenity
55.6962395,12.5457858,Al Talal Slagter,butcher,shop
55.6880152,12.5606456,Kassen,bar,amenity
55.6878113,12.5613264,fakta,supermarket,shop
55.6874681,12.5622798,Emmerys,bakery,shop
55.6954760,12.5439859,Isværket,ice_cream,amenity
55.6960958,12.5475371,MUCKI BAR v/Cevdet Secilmis,pub,amenity
55.6646229,12.5477897,Elite Købmand,convenience,shop
55.6782863,12.6023065,,post_box,amenity
55.6781383,12.6025898,,bicycle_parking,amenity
55.6716608,12.5913566,,bicycle_parking,amenity
55.6731484,12.5925583,Hilbert,jewelry,shop
55.6718729,12.5920754,Restaurant Long Feng,restaurant,amenity
55.6727158,12.5942052,,toilets,amenity
55.6700252,12.5927029,,toilets,amenity
55.6918676,12.5449758,Meyers Bageri,bakery,shop
55.6677450,12.5975179,Goldstar Cykler,bicycle,shop
55.6858275,12.5656905,Søens Cykler,bicycle,shop
55.6860135,12.5647334,Nilen,artwork,tourism
55.6864671,12.5652001,Tiberen,artwork,tourism
55.6880410,12.5545244,Spidsroden,convenience,shop
55.6892134,12.5552352,,greengrocer,shop
55.6734209,12.5926377,,recycling,amenity
55.6863341,12.5704031,,bicycle_parking,amenity
55.6986416,12.5500265,,post_box,amenity
55.6730803,12.5897285,Christianshavn City Cykler,bicycle,shop
55.6717402,12.5923237,,atm,amenity
55.6736610,12.5933524,Pigen og blomsten,florist,shop
55.6707865,12.5939559,,bench,amenity
55.6721123,12.5923625,7-Eleven,convenience,shop
55.6776341,12.5808715,,toilets,amenity
55.6747258,12.5979809,Elite Købmand,convenience,shop
55.6748568,12.5989033,SERVICE KIOSKEN & SPILLEHAL,kiosk,amenity
55.6724572,12.5946262,Thirion,butcher,shop
55.6767591,12.5980103,,recycling,amenity
55.6752141,12.6023368,Spejdermuseet,museum,tourism
55.6729677,12.5899858,Cibi e Vini,craft,shop
55.6728632,12.5901564,Hairwerk,hairdresser,shop
55.6799557,12.5299005,Frederiksberg brandstation,fire_station,amenity
55.6737113,12.6012739,Christiania Cykler,bicycle,amenity
55.6587207,12.5917320,,bicycle_parking,amenity
55.6857133,12.5521334,7-Eleven,convenience,shop
55.6852151,12.5512094,Hi-Fi Klubben,hifi,shop
55.6727027,12.5873207,,toilets,amenity
55.6731438,12.5896106,Banekiosken,convenience,shop
55.6838784,12.5550927,Humac,computer,shop
55.6975748,12.5441360,7-Eleven,convenience,shop
55.6981502,12.5432218,Røverkøb,paint,shop
55.6948889,12.5492205,An-Bo Møbler,furniture,shop
55.6903906,12.5545029,Street-Cut,hairdresser,shop
55.6950612,12.5426355,,bench,amenity
55.6754737,12.5963794,Coco,hairdresser,shop
55.6747958,12.5977093,Christianshavns Købmanden,convenience,shop
55.6738961,12.5916847,,convenience,shop
55.6587664,12.6067881,Bank Nordik,bank,amenity
55.6586345,12.6069752,InkStation Amager,computer,shop
55.6735930,12.6014800,Månefiskeren,cafe,amenity
55.6597063,12.5916910,,vending_machine,amenity
55.6706445,12.5845792,,parking_entrance,amenity
55.6743480,12.5936263,,recycling,amenity
55.6748690,12.5914250,,convenience,shop
55.6741218,12.5912587,Mono,hairdresser,shop
55.6731151,12.5896668,Salon CPH,hairdresser,shop
55.6754822,12.5924697,Christianshavns Færgecafé,restaurant,amenity
55.6722402,12.5947617,Den Polske Købmand,convenience,shop
55.6733005,12.5939114,Christianshavn Døttreskole,school,amenity
55.6714573,12.5908979,Ozon,hairdresser,shop
55.6717728,12.5917844,Kræmmerhuset,hardware,shop
55.6704175,12.5857924,,convenience,shop
55.6766323,12.5414954,,atm,amenity
55.6729248,12.5907827,Goocha Organic,hairdresser,shop
55.6979338,12.5526473,Køkkenet,fast_food,amenity
55.6925538,12.5411252,Hafnia Cykler,bicycle,shop
55.6907745,12.5606134,"Huset, der regner",artwork,tourism
55.6907843,12.5606429,,fountain,amenity
55.6904178,12.5609732,Paradis,ice_cream,shop
55.6671939,12.5333436,,clock,amenity
55.6631289,12.5954582,,vending_machine,amenity
55.6642900,12.5968070,,vending_machine,amenity
55.6635592,12.5973515,,vending_machine,amenity
55.6640987,12.5959705,,information,tourism
55.6637416,12.5949889,,vending_machine,amenity
55.6661265,12.5764103,,post_box,amenity
55.6661537,12.5764628,,recycling,amenity
55.6685053,12.5576615,Mother,restaurant,amenity
55.6910950,12.5430863,,pillar,tourism
55.6842896,12.5822424,Davids Samling,museum,tourism
55.6739050,12.5534689,Irma,supermarket,shop
55.6896039,12.5985331,Frederik IX,artwork,tourism
55.6878879,12.5944428,,parking,amenity
55.6716950,12.5646205,København Cykler,bicycle,shop
55.6750330,12.5979174,,recycling,amenity
55.6691207,12.5526474,Kaffe,cafe,amenity
55.6943497,12.5476369,,bicycle_parking,amenity
55.6869993,12.5587270,Kates Joint,restaurant,amenity
55.6668363,12.5462605,Kaffeslabberasen,cafe,amenity
55.6692738,12.5556966,Absalons Have,kindergarten,amenity
55.6743379,12.5603177,Fri BikeShop Urania,bicycle,shop
55.6876448,12.5594632,Harbo Bar,bar,amenity
55.6886382,12.5618443,Cafe Mellemrummet,cafe,amenity
55.6616338,12.5311699,,information,tourism
55.6865764,12.5497545,Aldi,supermarket,shop
55.6954525,12.6095487,Halvandet,bar,amenity
55.6727811,12.6001646,Café Nemoland,cafe,amenity
55.6731791,12.5902746,,post_box,amenity
55.6752712,12.5920792,,post_box,amenity
55.6713919,12.5926586,,post_box,amenity
55.6634266,12.5863458,fakta Q,convenience,shop
55.6787751,12.5803397,Toga Vinstue,bar,amenity
55.6982566,12.5995991,Det Genmodificerede Paradis,artwork,tourism
55.6935821,12.5999537,Svømmeren,artwork,tourism
55.7032085,12.7297442,,ferry_terminal,amenity
55.6857251,12.5372834,Camilla Cykler,bicycle,shop
55.6869115,12.5401719,Falcon cykler,bicycle,shop
55.6882961,12.5813831,Gefion Gymnasium,school,amenity
55.6907112,12.5718436,Søgade cykler,bicycle,shop
55.6784813,12.5796021,Copenhagen City Bike parking stand,bicycle_rental,amenity
55.6805322,12.5873290,Copenhagen City Bike,bicycle_rental,amenity
55.6807409,12.5876187,,bicycle_parking,amenity
55.6808574,12.5875758,,taxi,amenity
55.6810174,12.5864566,,taxi,amenity
55.6811024,12.5849848,,taxi,amenity
55.6788196,12.5793429,,toilets,amenity
55.6859226,12.5974076,David,artwork,tourism
55.6762730,12.5425750,,atm,amenity
55.6641321,12.6022422,P E Larsen,butcher,shop
55.6643689,12.6023365,Skjold Burne,alcohol,shop
55.6643102,12.6032096,Jaguaren,bar,amenity
55.6645210,12.6030950,Blomsterhuset,florist,shop
55.6643550,12.6034440,Top Klip,hairdresser,shop
55.6645790,12.6045270,Bootleggers Craft Beer Bar,pub,amenity
55.6651390,12.6061850,Ama'r Cykel-service,bicycle,shop
55.6664940,12.6139740,,atm,amenity
55.6669840,12.6163560,John's Kro,pub,amenity
55.6969378,12.5371984,PP Profesionel Paint,paint,shop
55.6990567,12.5434442,,bicycle_parking,amenity
55.6704755,12.5529726,,bicycle_parking,amenity
55.6697494,12.5473480,,bicycle_parking,amenity
55.6697177,12.5461786,,bicycle_parking,amenity
55.6706359,12.5527335,,bicycle_parking,amenity
55.6707765,12.5527069,,bicycle_parking,amenity
55.6704922,12.5444110,,bicycle_parking,amenity
55.6703212,12.5442474,,bicycle_parking,amenity
55.6710299,12.5438960,,bicycle_parking,amenity
55.6702987,12.5445950,,bicycle_parking,amenity
55.6695619,12.5451486,,bicycle_parking,amenity
55.6637256,12.5423296,,bicycle_parking,amenity
55.6646530,12.5479059,,bicycle_parking,amenity
55.6646893,12.5480535,,bicycle_parking,amenity
55.6640948,12.5485161,,bicycle_parking,amenity
55.6643172,12.5484625,,bicycle_parking,amenity
55.6641598,12.5457629,,bicycle_parking,amenity
55.6644299,12.5483794,,bicycle_parking,amenity
55.6654972,12.5514813,,bicycle_parking,amenity
55.6645532,12.5490888,,bicycle_parking,amenity
55.6653716,12.5513071,,bicycle_parking,amenity
55.6657392,12.5512131,,bicycle_parking,amenity
55.6653187,12.5513313,,bicycle_parking,amenity
55.6648905,12.5487455,,bicycle_parking,amenity
55.6656106,12.5513848,,bicycle_parking,amenity
55.6652203,12.5516986,,bicycle_parking,amenity
55.6653883,12.5515779,,bicycle_parking,amenity
55.6650766,12.5515457,,bicycle_parking,amenity
55.6652975,12.5516986,,bicycle_parking,amenity
55.6648164,12.5521385,,bicycle_parking,amenity
55.6661280,12.5521519,,bicycle_parking,amenity
55.6654125,12.5530075,,bicycle_parking,amenity
55.6661643,12.5533991,,bicycle_parking,amenity
55.6662401,12.5534248,,bicycle_parking,amenity
55.6654654,12.5544233,,bicycle_parking,amenity
55.6649670,12.5546728,,bicycle_parking,amenity
55.6655229,12.5543589,,bicycle_parking,amenity
55.6656606,12.5542275,,bicycle_parking,amenity
55.6654344,12.5544528,,bicycle_parking,amenity
55.6655494,12.5543375,,bicycle_parking,amenity
55.6655146,12.5552736,,bicycle_parking,amenity
55.6660191,12.5541524,,bicycle_parking,amenity
55.6651478,12.5545051,,bicycle_parking,amenity
55.6656349,12.5542651,,bicycle_parking,amenity
55.6653565,12.5545252,,bicycle_parking,amenity
55.6652847,12.5545816,,bicycle_parking,amenity
55.6654019,12.5544770,,bicycle_parking,amenity
55.6655887,12.5564618,,bicycle_parking,amenity
55.6654707,12.5560997,,bicycle_parking,amenity
55.6651145,12.5568816,,bicycle_parking,amenity
55.6651183,12.5565490,,bicycle_parking,amenity
55.6651372,12.5571619,,bicycle_parking,amenity
55.6651069,12.5566724,,bicycle_parking,amenity
55.6651197,12.5569661,,bicycle_parking,amenity
55.6658028,12.5558154,,bicycle_parking,amenity
55.6653642,12.5576895,,bicycle_parking,amenity
55.6658936,12.5556317,,bicycle_parking,amenity
55.6661236,12.5544428,,bicycle_parking,amenity
55.6655948,12.5569875,,bicycle_parking,amenity
55.6656621,12.5565986,,bicycle_parking,amenity
55.6665811,12.5541994,,bicycle_parking,amenity
55.6664692,12.5543013,,bicycle_parking,amenity
55.6663187,12.5544984,,bicycle_parking,amenity
55.6805752,12.5601333,,bicycle_parking,amenity
55.6749182,12.5590832,,bicycle_parking,amenity
55.6744834,12.5589437,,bicycle_parking,amenity
55.6734201,12.5501863,,bicycle_parking,amenity
55.6777646,12.5586474,,bicycle_parking,amenity
55.6739714,12.5565270,,bicycle_parking,amenity
55.6742247,12.5575382,,bicycle_parking,amenity
55.6779854,12.5587225,,bicycle_parking,amenity
55.6794047,12.5615937,,bicycle_parking,amenity
55.6786803,12.5609527,,bicycle_parking,amenity
55.6791793,12.5614677,,bicycle_parking,amenity
55.6790992,12.5625754,,bicycle_parking,amenity
55.6791385,12.5620900,,bicycle_parking,amenity
55.6797374,12.5616903,,bicycle_parking,amenity
55.6793064,12.5616608,,bicycle_parking,amenity
55.6790236,12.5616528,,bicycle_parking,amenity
55.6800156,12.5617493,,bicycle_parking,amenity
55.6784504,12.5608856,,bicycle_parking,amenity
55.6789631,12.5610090,,bicycle_parking,amenity
55.6796376,12.5630797,,bicycle_parking,amenity
55.6776489,12.5629375,,bicycle_parking,amenity
55.6773320,12.5626733,,bicycle_parking,amenity
55.6772466,12.5626224,,bicycle_parking,amenity
55.6771710,12.5625620,,bicycle_parking,amenity
55.6769328,12.5624467,,bicycle_parking,amenity
55.6770885,12.5625137,,bicycle_parking,amenity
55.6777804,12.5630341,,bicycle_parking,amenity
55.6770137,12.5624829,,bicycle_parking,amenity
55.6767876,12.5623783,,bicycle_parking,amenity
55.6759043,12.5621959,,bicycle_parking,amenity
55.6757501,12.5621865,,bicycle_parking,amenity
55.6756729,12.5621972,,bicycle_parking,amenity
55.6758310,12.5621852,,bicycle_parking,amenity
55.6760427,12.5617279,,bicycle_parking,amenity
55.6773025,12.5622267,,bicycle_parking,amenity
55.6758726,12.5618137,,bicycle_parking,amenity
55.6773757,12.5621836,,bicycle_parking,amenity
55.6770931,12.5621516,,bicycle_parking,amenity
55.6748116,12.5609500,,bicycle_parking,amenity
55.6775264,12.5617922,,bicycle_parking,amenity
55.6760283,12.5606965,,bicycle_parking,amenity
55.6748600,12.5604122,,bicycle_parking,amenity
55.6750746,12.5610155,,bicycle_parking,amenity
55.6749747,12.5608050,,bicycle_parking,amenity
55.6774878,12.5619921,,bicycle_parking,amenity
55.6765910,12.5609715,,bicycle_parking,amenity
55.6750829,12.5618975,,bicycle_parking,amenity
55.6751700,12.5617024,,bicycle_parking,amenity
55.6750468,12.5621905,,bicycle_parking,amenity
55.6743934,12.5621275,,bicycle_parking,amenity
55.6744675,12.5623716,,bicycle_parking,amenity
55.6742300,12.5622133,,bicycle_parking,amenity
55.6750921,12.5621691,,bicycle_parking,amenity
55.6748191,12.5619545,,bicycle_parking,amenity
55.6742656,12.5625218,,bicycle_parking,amenity
55.6710545,12.5725288,,bicycle_parking,amenity
55.6728013,12.5576916,,bicycle_parking,amenity
55.6742299,12.5605160,,bicycle_parking,amenity
55.6729079,12.5581998,,bicycle_parking,amenity
55.6735583,12.5609022,,bicycle_parking,amenity
55.6734313,12.5605589,,bicycle_parking,amenity
55.6729556,12.5584145,,bicycle_parking,amenity
55.6728164,12.5577707,,bicycle_parking,amenity
55.6745445,12.5605777,,bicycle_parking,amenity
55.6729896,12.5585606,,bicycle_parking,amenity
55.6728452,12.5579183,,bicycle_parking,amenity
55.6740679,12.5608594,,bicycle_parking,amenity
55.6741405,12.5608058,,bicycle_parking,amenity
55.6740937,12.5605857,,bicycle_parking,amenity
55.6728709,12.5580188,,bicycle_parking,amenity
55.6731182,12.5591159,,bicycle_parking,amenity
55.6740544,12.5618437,,bicycle_parking,amenity
55.6737368,12.5612965,,bicycle_parking,amenity
55.6731620,12.5593197,,bicycle_parking,amenity
55.6731424,12.5592097,,bicycle_parking,amenity
55.6732482,12.5597355,,bicycle_parking,amenity
55.6733375,12.5601110,,bicycle_parking,amenity
55.6724505,12.5558147,,bicycle_parking,amenity
55.6737701,12.5568427,,bicycle_parking,amenity
55.6735470,12.5569795,,bicycle_parking,amenity
55.6724820,12.5560711,,bicycle_parking,amenity
55.6736143,12.5569393,,bicycle_parking,amenity
55.6725172,12.5563062,,bicycle_parking,amenity
55.6736672,12.5569097,,bicycle_parking,amenity
55.6734834,12.5570063,,bicycle_parking,amenity
55.6726077,12.5536267,,bicycle_parking,amenity
55.6726553,12.5531265,,bicycle_parking,amenity
55.6726984,12.5526208,,bicycle_parking,amenity
55.6726924,12.5527228,,bicycle_parking,amenity
55.6727113,12.5524264,,bicycle_parking,amenity
55.6727037,12.5525525,,bicycle_parking,amenity
55.6726855,12.5528113,,bicycle_parking,amenity
55.6727166,12.5523352,,bicycle_parking,amenity
55.6726342,12.5533196,,bicycle_parking,amenity
55.6726795,12.5529294,,bicycle_parking,amenity
55.6727354,12.5520508,,bicycle_parking,amenity
55.6726417,12.5494841,,bicycle_parking,amenity
55.6718423,12.5462426,,bicycle_parking,amenity
55.6717184,12.5466663,,bicycle_parking,amenity
55.6727695,12.5512154,,bicycle_parking,amenity
55.6727521,12.5518201,,bicycle_parking,amenity
55.6727786,12.5513965,,bicycle_parking,amenity
55.6727589,12.5510357,,bicycle_parking,amenity
55.6727445,12.5519355,,bicycle_parking,amenity
55.6727741,12.5513187,,bicycle_parking,amenity
55.6671852,12.5554277,,bicycle_parking,amenity
55.6664734,12.5560902,,bicycle_parking,amenity
55.6662775,12.5562686,,bicycle_parking,amenity
55.6673039,12.5564014,,bicycle_parking,amenity
55.6661012,12.5566307,,bicycle_parking,amenity
55.6667465,12.5560084,,bicycle_parking,amenity
55.6665558,12.5550375,,bicycle_parking,amenity
55.6674915,12.5562203,,bicycle_parking,amenity
55.6662268,12.5565195,,bicycle_parking,amenity
55.6666103,12.5551126,,bicycle_parking,amenity
55.6677350,12.5560031,,bicycle_parking,amenity
55.6652873,12.5589884,,bicycle_parking,amenity
55.6700638,12.5643085,,bicycle_parking,amenity
55.6701939,12.5646653,,bicycle_parking,amenity
55.6709427,12.5663202,,bicycle_parking,amenity
55.6707370,12.5657623,,bicycle_parking,amenity
55.6706311,12.5654941,,bicycle_parking,amenity
55.6710773,12.5666796,,bicycle_parking,amenity
55.6706462,12.5610912,,bicycle_parking,amenity
55.6714222,12.5637560,,bicycle_parking,amenity
55.6715840,12.5642012,,bicycle_parking,amenity
55.6711076,12.5617229,,bicycle_parking,amenity
55.6710350,12.5618008,,bicycle_parking,amenity
55.6690715,12.5582065,,bicycle_parking,amenity
55.6685391,12.5547277,,bicycle_parking,amenity
55.6689384,12.5545292,,bicycle_parking,amenity
55.6680989,12.5549235,,bicycle_parking,amenity
55.6687115,12.5574233,,bicycle_parking,amenity
55.6680217,12.5539391,,bicycle_parking,amenity
55.6684301,12.5538372,,bicycle_parking,amenity
55.6688416,12.5537192,,bicycle_parking,amenity
55.6673796,12.5378596,,bicycle_parking,amenity
55.6642996,12.5399463,,bicycle_parking,amenity
55.6643676,12.5392677,,bicycle_parking,amenity
55.6646838,12.5403219,,bicycle_parking,amenity
55.6649743,12.5400469,,bicycle_parking,amenity
55.6649433,12.5402789,,bicycle_parking,amenity
55.6686866,12.5402199,,bicycle_parking,amenity
55.6643888,12.5401636,,bicycle_parking,amenity
55.6670529,12.5377992,,bicycle_parking,amenity
55.6660394,12.5401340,,bicycle_parking,amenity
55.6671709,12.5378193,,bicycle_parking,amenity
55.6647678,12.5403688,,bicycle_parking,amenity
55.6644508,12.5387340,,bicycle_parking,amenity
55.6648003,12.5384389,,bicycle_parking,amenity
55.6652284,12.5387085,,bicycle_parking,amenity
55.6649622,12.5384953,,bicycle_parking,amenity
55.6661748,12.5401758,,bicycle_parking,amenity
55.6643177,12.5396272,,bicycle_parking,amenity
55.6658419,12.5409616,,bicycle_parking,amenity
55.6645575,12.5402615,,bicycle_parking,amenity
55.6644781,12.5385945,,bicycle_parking,amenity
55.6643510,12.5394314,,bicycle_parking,amenity
55.6652874,12.5396406,,bicycle_parking,amenity
55.6652776,12.5388614,,bicycle_parking,amenity
55.6645310,12.5387072,,bicycle_parking,amenity
55.6692579,12.5403383,,bicycle_parking,amenity
55.6651672,12.5400992,,bicycle_parking,amenity
55.6672329,12.5378354,,bicycle_parking,amenity
55.6654107,12.5407255,,bicycle_parking,amenity
55.6654690,12.5441909,,bicycle_parking,amenity
55.6653896,12.5439616,,bicycle_parking,amenity
55.6654750,12.5440568,,bicycle_parking,amenity
55.6657153,12.5434042,,bicycle_parking,amenity
55.6651853,12.5438181,,bicycle_parking,amenity
55.6636267,12.5395588,,bicycle_parking,amenity
55.6636237,12.5394556,,bicycle_parking,amenity
55.6636214,12.5393389,,bicycle_parking,amenity
55.6636206,12.5392222,,bicycle_parking,amenity
55.6642341,12.5440019,,bicycle_parking,amenity
55.6645049,12.5436505,,bicycle_parking,amenity
55.6642455,12.5425924,,bicycle_parking,amenity
55.6643612,12.5437672,,bicycle_parking,amenity
55.6646244,12.5428178,,bicycle_parking,amenity
55.6643317,12.5426367,,bicycle_parking,amenity
55.6646812,12.5428539,,bicycle_parking,amenity
55.6646260,12.5435650,,bicycle_parking,amenity
55.6642099,12.5438638,,bicycle_parking,amenity
55.6650306,12.5454664,,bicycle_parking,amenity
55.6653922,12.5447140,,bicycle_parking,amenity
55.6652538,12.5442446,,bicycle_parking,amenity
55.6646599,12.5437407,,bicycle_parking,amenity
55.6645548,12.5438396,,bicycle_parking,amenity
55.6650654,12.5452920,,bicycle_parking,amenity
55.6649353,12.5435902,,bicycle_parking,amenity
55.6647666,12.5436237,,bicycle_parking,amenity
55.6647402,12.5434829,,bicycle_parking,amenity
55.6657984,12.5451257,,bicycle_parking,amenity
55.6657681,12.5453403,,bicycle_parking,amenity
55.6662053,12.5441829,,bicycle_parking,amenity
55.6653113,12.5463126,,bicycle_parking,amenity
55.6653302,12.5459143,,bicycle_parking,amenity
55.6654346,12.5465500,,bicycle_parking,amenity
55.6665866,12.5484490,,bicycle_parking,amenity
55.6657855,12.5485965,,bicycle_parking,amenity
55.6660488,12.5493905,,bicycle_parking,amenity
55.6667462,12.5492027,,bicycle_parking,amenity
55.6681144,12.5511889,,bicycle_parking,amenity
55.6673596,12.5512613,,bicycle_parking,amenity
55.6677590,12.5490163,,bicycle_parking,amenity
55.6671251,12.5513149,,bicycle_parking,amenity
55.6683800,12.5511654,,bicycle_parking,amenity
55.6668876,12.5513391,,bicycle_parking,amenity
55.6670177,12.5513176,,bicycle_parking,amenity
55.6672431,12.5512828,,bicycle_parking,amenity
55.6674988,12.5512291,,bicycle_parking,amenity
55.6753425,12.5646731,,bicycle_parking,amenity
55.6767770,12.5639475,,bicycle_parking,amenity
55.6757305,12.5642828,,bicycle_parking,amenity
55.6765086,12.5639100,,bicycle_parking,amenity
55.6750529,12.5649829,,bicycle_parking,amenity
55.6763112,12.5664259,,bicycle_parking,amenity
55.6761252,12.5643311,,bicycle_parking,amenity
55.6769011,12.5648327,,bicycle_parking,amenity
55.6754514,12.5645658,,bicycle_parking,amenity
55.6751104,12.5649333,,bicycle_parking,amenity
55.6781140,12.5644277,,bicycle_parking,amenity
55.6756412,12.5643740,,bicycle_parking,amenity
55.6764549,12.5640749,,bicycle_parking,amenity
55.6751799,12.5648582,,bicycle_parking,amenity
55.6779295,12.5642238,,bicycle_parking,amenity
55.6752692,12.5647603,,bicycle_parking,amenity
55.6767831,12.5637169,,bicycle_parking,amenity
55.6769253,12.5638242,,bicycle_parking,amenity
55.6836054,12.5729417,Taffelbay,bakery,shop
55.6711210,12.5662526,,bicycle_parking,amenity
55.6712367,12.5665503,,bicycle_parking,amenity
55.6700364,12.5763230,,bicycle_parking,amenity
55.6627251,12.5616486,,bicycle_parking,amenity
55.6708502,12.5654332,,bicycle_parking,amenity
55.6630549,12.5621904,,bicycle_parking,amenity
55.6710226,12.5659723,,bicycle_parking,amenity
55.6709183,12.5656867,,bicycle_parking,amenity
55.6721072,12.5669218,,bicycle_parking,amenity
55.6742595,12.5642181,,bicycle_parking,amenity
55.6725035,12.5670559,,bicycle_parking,amenity
55.6727183,12.5668440,,bicycle_parking,amenity
55.6728678,12.5709813,,bicycle_parking,amenity
55.6729019,12.5710632,,bicycle_parking,amenity
55.6748220,12.5691802,,bicycle_parking,amenity
55.6751786,12.5666200,,bicycle_parking,amenity
55.6749483,12.5658328,,bicycle_parking,amenity
55.6730804,12.5713139,,bicycle_parking,amenity
55.6754731,12.5675039,,bicycle_parking,amenity
55.6733239,12.5716211,,bicycle_parking,amenity
55.6727226,12.5705535,,bicycle_parking,amenity
55.6754108,12.5672925,,bicycle_parking,amenity
55.6720193,12.5686519,,bicycle_parking,amenity
55.6713190,12.5723828,,bicycle_parking,amenity
55.6708788,12.5728897,,bicycle_parking,amenity
55.6700726,12.5709666,,bicycle_parking,amenity
55.6685206,12.5720904,,bicycle_parking,amenity
55.6711889,12.5722111,,bicycle_parking,amenity
55.6697746,12.5714548,,bicycle_parking,amenity
55.6706867,12.5733216,,bicycle_parking,amenity
55.6713296,12.5716264,,bicycle_parking,amenity
55.6711314,12.5715272,,bicycle_parking,amenity
55.6695477,12.5707708,,bicycle_parking,amenity
55.6689804,12.5705294,,bicycle_parking,amenity
55.6711238,12.5724043,,bicycle_parking,amenity
55.6688276,12.5720422,,bicycle_parking,amenity
55.6715262,12.5733323,,bicycle_parking,amenity
55.6716457,12.5727382,,bicycle_parking,amenity
55.6716669,12.5712885,,bicycle_parking,amenity
55.6709212,12.5737320,,bicycle_parking,amenity
55.6713961,12.5736032,,bicycle_parking,amenity
55.6716056,12.5731848,,bicycle_parking,amenity
55.6714936,12.5733966,,bicycle_parking,amenity
55.6717803,12.5728656,,bicycle_parking,amenity
55.6715988,12.5714628,,bicycle_parking,amenity
55.6726372,12.5736729,,bicycle_parking,amenity
55.6721864,12.5744294,,bicycle_parking,amenity
55.6710951,12.5768152,,bicycle_parking,amenity
55.6725608,12.5738339,,bicycle_parking,amenity
55.6720866,12.5746332,,bicycle_parking,amenity
55.6719497,12.5642906,,bicycle_parking,amenity
55.6720617,12.5642128,,bicycle_parking,amenity
55.6717909,12.5644998,,bicycle_parking,amenity
55.6718877,12.5643870,,bicycle_parking,amenity
55.6726334,12.5635261,,bicycle_parking,amenity
55.6722205,12.5639633,,bicycle_parking,amenity
55.6720964,12.5641565,,bicycle_parking,amenity
55.6720458,12.5611658,,bicycle_parking,amenity
55.6734305,12.5617800,,bicycle_parking,amenity
55.6701906,12.5599400,,bicycle_parking,amenity
55.6702707,12.5601197,,bicycle_parking,amenity
55.6702806,12.5597147,,bicycle_parking,amenity
55.6704273,12.5600876,,bicycle_parking,amenity
55.6702269,12.5600406,,bicycle_parking,amenity
55.6695053,12.5583468,,bicycle_parking,amenity
55.6690228,12.5573370,,bicycle_parking,amenity
55.6689055,12.5571733,,bicycle_parking,amenity
55.6677967,12.5531540,,bicycle_parking,amenity
55.6683935,12.5499005,,bicycle_parking,amenity
55.6706096,12.5498978,,bicycle_parking,amenity
55.6689615,12.5529059,,bicycle_parking,amenity
55.6706852,12.5498978,,bicycle_parking,amenity
55.6722825,12.5489644,,bicycle_parking,amenity
55.6720828,12.5482563,,bicycle_parking,amenity
55.6679994,12.5531299,,bicycle_parking,amenity
55.6683080,12.5559100,,bicycle_parking,amenity
55.6686340,12.5566020,,bicycle_parking,amenity
55.6684457,12.5561823,,bicycle_parking,amenity
55.6703101,12.5498710,,bicycle_parking,amenity
55.6682899,12.5560763,,bicycle_parking,amenity
55.6668770,12.5458927,,recycling,amenity
55.6664080,12.5516742,,recycling,amenity
55.6696613,12.5418133,,recycling,amenity
55.6696782,12.5416475,,bicycle_parking,amenity
55.6702137,12.5438563,,bicycle_parking,amenity
55.6696328,12.5428947,,bicycle_parking,amenity
55.6695859,12.5431603,,bicycle_parking,amenity
55.6695095,12.5432019,,bicycle_parking,amenity
55.6690560,12.5437448,,bicycle_parking,amenity
55.6691737,12.5439985,,bicycle_parking,amenity
55.6696313,12.5427874,,bicycle_parking,amenity
55.6696358,12.5433534,,bicycle_parking,amenity
55.6700639,12.5413471,,bicycle_parking,amenity
55.6691049,12.5437021,,bicycle_parking,amenity
55.6692244,12.5442573,,bicycle_parking,amenity
55.6695602,12.5433708,,bicycle_parking,amenity
55.6696555,12.5418782,,bicycle_parking,amenity
55.6697115,12.5438831,,bicycle_parking,amenity
55.6691261,12.5440320,,bicycle_parking,amenity
55.6700692,12.5435935,,bicycle_parking,amenity
55.6698431,12.5425541,,bicycle_parking,amenity
55.6699762,12.5436806,,bicycle_parking,amenity
55.6699134,12.5428129,,bicycle_parking,amenity
55.6701501,12.5436230,,bicycle_parking,amenity
55.6691427,12.5438644,,bicycle_parking,amenity
55.6690943,12.5439059,,bicycle_parking,amenity
55.6686639,12.5446744,,bicycle_parking,amenity
55.6679719,12.5429081,,bicycle_parking,amenity
55.6679298,12.5430769,,bicycle_parking,amenity
55.6682820,12.5442519,,bicycle_parking,amenity
55.6678244,12.5435076,,bicycle_parking,amenity
55.6677358,12.5440382,,bicycle_parking,amenity
55.6685649,12.5446301,,bicycle_parking,amenity
55.6685165,12.5470656,,bicycle_parking,amenity
55.6677813,12.5480982,,bicycle_parking,amenity
55.6680490,12.5464835,,bicycle_parking,amenity
55.6681549,12.5489485,,bicycle_parking,amenity
55.6684378,12.5489029,,bicycle_parking,amenity
55.6691351,12.5477656,,bicycle_parking,amenity
55.6704333,12.5485274,,bicycle_parking,amenity
55.6726091,12.5518517,,bicycle_parking,amenity
55.6724223,12.5540282,,bicycle_parking,amenity
55.6725758,12.5523170,,bicycle_parking,amenity
55.6725993,12.5519509,,bicycle_parking,amenity
55.6725358,12.5498011,,bicycle_parking,amenity
55.6722302,12.5505065,,bicycle_parking,amenity
55.6725251,12.5530225,,bicycle_parking,amenity
55.6727324,12.5579872,,bicycle_parking,amenity
55.6725441,12.5527931,,bicycle_parking,amenity
55.6727052,12.5578262,,bicycle_parking,amenity
55.6726855,12.5576895,,bicycle_parking,amenity
55.6725600,12.5526322,,bicycle_parking,amenity
55.6725630,12.5500639,,bicycle_parking,amenity
55.6725842,12.5503187,,bicycle_parking,amenity
55.6712576,12.5602778,,bicycle_parking,amenity
55.6715647,12.5581159,,bicycle_parking,amenity
55.6695128,12.5569854,,bicycle_parking,amenity
55.6696255,12.5575112,,bicycle_parking,amenity
55.6695702,12.5573489,,bicycle_parking,amenity
55.6698411,12.5579805,,bicycle_parking,amenity
55.6701912,12.5561526,,bicycle_parking,amenity
55.6727657,12.5581134,,bicycle_parking,amenity
55.6699190,12.5550555,,bicycle_parking,amenity
55.6728020,12.5583466,,bicycle_parking,amenity
55.6717690,12.5545961,,bicycle_parking,amenity
55.6696391,12.5553264,,bicycle_parking,amenity
55.6704635,12.5524446,,vending_machine,amenity
55.6977273,12.5438866,Star Cykel,bicycle,shop
55.6685463,12.5432842,Lagkagehuset,bakery,shop
55.6913649,12.5612998,,toilets,amenity
55.6870867,12.5591268,Københavns Cykelkooperativ,bicycle,shop
55.6909403,12.5797008,Carl Nielsen,artwork,tourism
55.6921097,12.5840674,Hans Tavsen,artwork,tourism
55.6893068,12.5754951,Det liter möt skymning,artwork,tourism
55.6692897,12.5455394,,bench,amenity
55.6693161,12.5456131,,bench,amenity
55.6692012,12.5456292,,bench,amenity
55.6692314,12.5454777,,bench,amenity
55.6692110,12.5455528,,bench,amenity
55.6689706,12.5454145,,bench,amenity
55.6689706,12.5452871,,bench,amenity
55.6689705,12.5453247,,bench,amenity
55.6689698,12.5454575,,bench,amenity
55.6750325,12.5557283,,bench,amenity
55.6763150,12.5558932,,bench,amenity
55.6774161,12.5563587,,bench,amenity
55.6753645,12.5556680,,bench,amenity
55.6749619,12.5557048,,bench,amenity
55.6775151,12.5563868,,bench,amenity
55.6773889,12.5563533,,bench,amenity
55.6774849,12.5563801,,bench,amenity
55.6750680,12.5557377,,bench,amenity
55.6749327,12.5556974,,bench,amenity
55.6762182,12.5558678,,bench,amenity
55.6917226,12.5429394,,bbq,amenity
55.6920389,12.5817901,,bench,amenity
55.6920750,12.5818912,,bench,amenity
55.6922356,12.5779901,,bench,amenity
55.6922790,12.5780428,,bench,amenity
55.6833175,12.5650582,Mamma Che Gelato - La Fiorita,ice_cream,amenity
55.6662935,12.5418347,,bench,amenity
55.6626200,12.6048200,PP Cykler,bicycle,shop
55.6921839,12.5809916,,post_box,amenity
55.6923621,12.5813582,,bench,amenity
55.6923682,12.5809398,,recycling,amenity
55.6924051,12.5814692,,bench,amenity
55.6924481,12.5815803,,bench,amenity
55.6688169,12.5792436,,bicycle_parking,amenity
55.6688645,12.5792918,,bicycle_parking,amenity
55.6689659,12.5793838,,bicycle_parking,amenity
55.6690215,12.5794234,,bicycle_parking,amenity
55.6691518,12.5791901,,bicycle_parking,amenity
55.6691882,12.5787592,,bench,amenity
55.6697381,12.5794350,,bench,amenity
55.6671342,12.5531439,,post_box,amenity
55.6709376,12.5483893,,post_box,amenity
55.6776309,12.5801850,Agnete og Havmanden,artwork,tourism
55.6943032,12.5816225,,bicycle_parking,amenity
55.6944627,12.5812068,,bench,amenity
55.6945502,12.5813292,,bicycle_parking,amenity
55.6947005,12.5811100,,bicycle_parking,amenity
55.6947406,12.5810351,,bench,amenity
55.6837556,12.5688474,,bicycle_parking,amenity
55.6838735,12.5688259,,bicycle_parking,amenity
55.6839339,12.5702073,,bicycle_parking,amenity
55.6843075,12.5693355,,bicycle_parking,amenity
55.6842107,12.5700034,,bicycle_parking,amenity
55.6841502,12.5691746,,bicycle_parking,amenity
55.6840731,12.5703280,,bicycle_parking,amenity
55.6843498,12.5696413,,bicycle_parking,amenity
55.6835073,12.5697738,,bicycle_parking,amenity
55.6836404,12.5703371,,bicycle_parking,amenity
55.6841180,12.5659261,,bicycle_parking,amenity
55.6839985,12.5658027,,bicycle_parking,amenity
55.6833833,12.5699723,,bicycle_parking,amenity
55.6837855,12.5701386,,bicycle_parking,amenity
55.6746144,12.5901706,,bicycle_parking,amenity
55.6775630,12.5807303,,bicycle_parking,amenity
55.6759623,12.5920876,,bicycle_parking,amenity
55.6744726,12.5903589,,bicycle_parking,amenity
55.6749827,12.5903383,,bicycle_parking,amenity
55.6750734,12.5901505,,bicycle_parking,amenity
55.6754092,12.5911751,,bicycle_parking,amenity
55.6757181,12.5910205,,bicycle_parking,amenity
55.6755861,12.5922722,,recycling,amenity
55.6774662,12.5809771,,bicycle_parking,amenity
55.6773788,12.5811858,,bicycle_parking,amenity
55.6752005,12.5899467,,bicycle_parking,amenity
55.6732925,12.5927167,,bicycle_parking,amenity
55.6745138,12.5904389,,bicycle_parking,amenity
55.6776177,12.5805150,,bicycle_parking,amenity
55.6748942,12.5904872,,bicycle_parking,amenity
55.6772820,12.5813843,,bicycle_parking,amenity
55.6750257,12.5915408,,bicycle_parking,amenity
55.6778740,12.5768580,,bicycle_parking,amenity
55.6784175,12.5796327,,bicycle_parking,amenity
55.6722455,12.5921992,,bicycle_parking,amenity
55.6784050,12.5795516,,bicycle_parking,amenity
55.6720906,12.5910002,,bicycle_parking,amenity
55.6779913,12.5797644,,bicycle_parking,amenity
55.6795354,12.5745154,,bicycle_parking,amenity
55.6780034,12.5800112,,bicycle_parking,amenity
55.6718477,12.5914991,,bicycle_parking,amenity
55.6721381,12.5947754,,bicycle_parking,amenity
55.6774650,12.5771761,,bicycle_parking,amenity
55.6780896,12.5766638,,bicycle_parking,amenity
55.6793661,12.5743301,,bicycle_parking,amenity
55.6784259,12.5763515,,bicycle_parking,amenity
55.6797093,12.5746843,,bicycle_parking,amenity
55.6784859,12.5798985,,bicycle_parking,amenity
55.6726192,12.5915282,,bicycle_parking,amenity
55.6817399,12.5631318,,bicycle_parking,amenity
55.6818865,12.5628181,,bicycle_parking,amenity
55.6833525,12.5581831,,bicycle_parking,amenity
55.6891576,12.6185022,Restaurant Lynetten,restaurant,amenity
55.6892253,12.6182743,,toilets,amenity
55.6759752,12.5999584,,bicycle_parking,amenity
55.6752962,12.5982639,,bicycle_parking,amenity
55.6764961,12.5942526,,bicycle_parking,amenity
55.6755916,12.5986189,,bicycle_parking,amenity
55.6770931,12.5969271,,bicycle_parking,amenity
55.6758686,12.5980338,,bicycle_parking,amenity
55.6758984,12.5989880,,bicycle_parking,amenity
55.6730131,12.5935733,,bicycle_parking,amenity
55.6776820,12.5978702,,bicycle_parking,amenity
55.6755601,12.5922322,,bicycle_parking,amenity
55.6726909,12.5974250,,bicycle_parking,amenity
55.6755329,12.5939434,,bicycle_parking,amenity
55.6762150,12.5985568,,bicycle_parking,amenity
55.6757945,12.5967329,,bicycle_parking,amenity
55.6746026,12.5977390,,bicycle_parking,amenity
55.6755971,12.5976196,,bicycle_parking,amenity
55.6731946,12.5938628,,bicycle_parking,amenity
55.6719436,12.5968794,,bicycle_parking,amenity
55.6766052,12.5955635,,bicycle_parking,amenity
55.6740839,12.5916555,,bicycle_parking,amenity
55.6759987,12.5970494,,bicycle_parking,amenity
55.6725034,12.5971889,,bicycle_parking,amenity
55.6756902,12.5953865,,bicycle_parking,amenity
55.6751306,12.5954321,,bicycle_parking,amenity
55.6757522,12.5941634,,bicycle_parking,amenity
55.6755026,12.5925943,,bicycle_parking,amenity
55.6719089,12.5952658,,bicycle_parking,amenity
55.6762074,12.5973633,,bicycle_parking,amenity
55.6756478,12.5938200,,bicycle_parking,amenity
55.6774850,12.5967383,,bicycle_parking,amenity
55.6741132,12.5830668,,bicycle_parking,amenity
55.6731029,12.5813979,,bicycle_parking,amenity
55.6701300,12.5906794,,bicycle_parking,amenity
55.6701232,12.5890339,,bicycle_parking,amenity
55.6698436,12.5889550,,bicycle_parking,amenity
55.6701900,12.5891455,,bicycle_parking,amenity
55.6697528,12.5895049,,bicycle_parking,amenity
55.6701400,12.5888451,,bicycle_parking,amenity
55.6698511,12.5896846,,bicycle_parking,amenity
55.6704727,12.5854975,,bicycle_parking,amenity
55.6713388,12.5910297,,bicycle_parking,amenity
55.6711089,12.5907709,,bicycle_parking,amenity
55.6704675,12.5847292,,recycling,amenity
55.6706527,12.5836345,,bicycle_parking,amenity
55.6703229,12.5877303,,bicycle_parking,amenity
55.6713532,12.5846179,,bicycle_parking,amenity
55.6703367,12.5891830,,bicycle_parking,amenity
55.6700001,12.5879090,,bicycle_parking,amenity
55.6708631,12.5840533,,bicycle_parking,amenity
55.6700289,12.5876381,,bicycle_parking,amenity
55.6713653,12.5894432,,bicycle_parking,amenity
55.6708328,12.5860864,,bicycle_parking,amenity
55.6719521,12.5896605,,bicycle_parking,amenity
55.6722925,12.5853314,,bicycle_parking,amenity
55.6726540,12.5875657,,bicycle_parking,amenity
55.6720081,12.5897248,,bicycle_parking,amenity
55.6719552,12.5887861,,bicycle_parking,amenity
55.6719567,12.5882657,,bicycle_parking,amenity
55.6723598,12.5902841,,bicycle_parking,amenity
55.6717253,12.5879036,,bicycle_parking,amenity
55.6732242,12.5881611,,bicycle_parking,amenity
55.6809682,12.6072934,,bicycle_parking,amenity
55.6822612,12.6063009,,bicycle_parking,amenity
55.6804919,12.6063761,,bicycle_parking,amenity
55.6813463,12.6071574,,bicycle_parking,amenity
55.6815882,12.6076555,,bicycle_parking,amenity
55.6791588,12.6062849,,bicycle_parking,amenity
55.6822929,12.6079746,,bicycle_parking,amenity
55.6807354,12.6063170,,bicycle_parking,amenity
55.6823595,12.6059791,,bicycle_parking,amenity
55.6812268,12.6054346,,bicycle_parking,amenity
55.6829646,12.6069490,,bicycle_parking,amenity
55.6809017,12.6041820,,bicycle_parking,amenity
55.6794771,12.6067623,,bicycle_parking,amenity
55.6799777,12.6069393,,bicycle_parking,amenity
55.6822657,12.6067221,,bicycle_parking,amenity
55.6810106,12.6073711,,bicycle_parking,amenity
55.6814148,12.6054880,,bicycle_parking,amenity
55.6805850,12.6038803,,bicycle_parking,amenity
55.6816940,12.6059393,,bicycle_parking,amenity
55.6803752,12.6037105,,bicycle_parking,amenity
55.6818175,12.6054910,,bicycle_parking,amenity
55.6816518,12.6075830,,bicycle_parking,amenity
55.6795664,12.6067703,,bicycle_parking,amenity
55.6968854,12.5514478,Leonora Blomster,florist,shop
55.6738595,12.5646995,Library Bar,bar,amenity
55.6823386,12.6047558,,bicycle_parking,amenity
55.6819741,12.6034764,,bicycle_parking,amenity
55.6827667,12.6055954,,bicycle_parking,amenity
55.6832120,12.6046923,,bicycle_parking,amenity
55.6811046,12.6028139,,bicycle_parking,amenity
55.6799910,12.6020994,,bicycle_parking,amenity
55.6828395,12.6009569,,bicycle_parking,amenity
55.6811107,12.6041577,,bicycle_parking,amenity
55.6795270,12.6017386,,bicycle_parking,amenity
55.6813420,12.6032861,,bicycle_parking,amenity
55.6827298,12.6041461,,bicycle_parking,amenity
55.6835543,12.6047290,,bicycle_parking,amenity
55.6830538,12.6050803,,bicycle_parking,amenity
55.6812513,12.6036507,,bicycle_parking,amenity
55.6814408,12.6016325,,bicycle_parking,amenity
55.6814449,12.6036990,,bicycle_parking,amenity
55.6834394,12.6050616,,bicycle_parking,amenity
55.6825352,12.6049436,,bicycle_parking,amenity
55.6824974,12.6038009,,bicycle_parking,amenity
55.6818774,12.6042006,,bicycle_parking,amenity
55.6819469,12.6033101,,bicycle_parking,amenity
55.6825457,12.6039941,,bicycle_parking,amenity
55.6813768,12.6013172,,bicycle_parking,amenity
55.6822555,12.6035704,,bicycle_parking,amenity
55.6827741,12.6040343,,bicycle_parking,amenity
55.6816717,12.6032189,,bicycle_parking,amenity
55.6828633,12.6051941,,bicycle_parking,amenity
55.6817216,12.6031143,,bicycle_parking,amenity
55.6815916,12.6039485,,bicycle_parking,amenity
55.6918232,12.5880592,,taxi,amenity
55.6914003,12.5895679,Mindesmærke for frivillige og faldne,artwork,tourism
55.6903284,12.5867337,Christian IV,artwork,tourism
55.6876902,12.5851611,Ivonett,hairdresser,shop
55.6857496,12.5850468,Powerflower,florist,shop
55.6941770,12.5493680,Lagkagehuset,bakery,shop
55.6754185,12.5689214,,bicycle_parking,amenity
55.6915942,12.5898749,,picnic_site,tourism
55.6864670,12.5876904,Borgerkroen,pub,amenity
55.6883388,12.5874598,Nyboder genbrugsplads,recycling,amenity
55.6793110,12.5735621,,bicycle_parking,amenity
55.6790902,12.5716577,,bicycle_parking,amenity
55.6791884,12.5729291,,bicycle_parking,amenity
55.6792489,12.5736157,,bicycle_parking,amenity
55.6790841,12.5718051,,bicycle_parking,amenity
55.6792898,12.5734037,,bicycle_parking,amenity
55.6797147,12.5722718,,bicycle_parking,amenity
55.6807945,12.5730657,,bicycle_parking,amenity
55.6792293,12.5731516,,bicycle_parking,amenity
55.6804164,12.5730389,,bicycle_parking,amenity
55.6798418,12.5728994,,bicycle_parking,amenity
55.6791249,12.5726178,,bicycle_parking,amenity
55.6790720,12.5722906,,bicycle_parking,amenity
55.6728593,12.5936406,,bicycle_parking,amenity
55.6756638,12.5816681,,bicycle_parking,amenity
55.6732967,12.5819792,,bicycle_parking,amenity
55.6731417,12.5816587,,bicycle_parking,amenity
55.6755927,12.5812470,,bicycle_parking,amenity
55.6729577,12.5816125,,bicycle_parking,amenity
55.6753719,12.5831460,,bicycle_parking,amenity
55.6749514,12.5847848,,bicycle_parking,amenity
55.6732014,12.5817217,,bicycle_parking,amenity
55.6729176,12.5811941,,bicycle_parking,amenity
55.6757545,12.5819122,,bicycle_parking,amenity
55.6751767,12.5848250,,bicycle_parking,amenity
55.6746027,12.5846203,,bicycle_parking,amenity
55.6761665,12.5743564,,bicycle_parking,amenity
55.6768229,12.5823681,,bicycle_parking,amenity
55.6759979,12.5739249,,bicycle_parking,amenity
55.6760083,12.5755774,,bicycle_parking,amenity
55.6759209,12.5754760,,recycling,amenity
55.6770679,12.5774812,,bicycle_parking,amenity
55.6764508,12.5765316,,bicycle_parking,amenity
55.6833075,12.5657946,,bicycle_parking,amenity
55.6805613,12.5713308,,recycling,amenity
55.6770588,12.5730582,,bicycle_parking,amenity
55.6783246,12.5722614,,bicycle_parking,amenity
55.6782339,12.5720148,,bicycle_parking,amenity
55.6772461,12.5733266,,bicycle_parking,amenity
55.6782717,12.5721407,,bicycle_parking,amenity
55.6834361,12.5653092,,bicycle_parking,amenity
55.6834360,12.5651189,,bicycle_parking,amenity
55.6777469,12.5724440,,bicycle_parking,amenity
55.6809317,12.5621549,,recycling,amenity
55.6810014,12.5620987,,bicycle_parking,amenity
55.6739171,12.5496938,Prins Henriks Skole,school,amenity
55.6729849,12.5815399,,taxi,amenity
55.6673458,12.5826208,,bicycle_parking,amenity
55.6882301,12.5812291,,bicycle_parking,amenity
55.6735565,12.5730531,,bicycle_parking,amenity
55.6742068,12.5714518,,bicycle_parking,amenity
55.6781981,12.5656368,,bicycle_parking,amenity
55.6732812,12.5735198,,bicycle_parking,amenity
55.6750296,12.5714384,,bicycle_parking,amenity
55.6767122,12.5671798,,bicycle_parking,amenity
55.6783387,12.5658702,,bicycle_parking,amenity
55.6737077,12.5738846,,recycling,amenity
55.6792628,12.5645800,,bicycle_parking,amenity
55.6625754,12.6158363,Amager Barber Shop,hairdresser,shop
55.6928738,12.5516050,Oysters & Grill,restaurant,amenity
55.6847044,12.5662078,La Rocca,restaurant,amenity
55.6832824,12.5661022,Höst,restaurant,amenity
55.6665147,12.5512727,,bicycle_parking,amenity
55.6727576,12.5521715,Spuntino,restaurant,amenity
55.6815124,12.6049804,,bicycle_parking,amenity
55.6784308,12.5820656,,bicycle_parking,amenity
55.6788165,12.5811403,,bicycle_parking,amenity
55.6784747,12.5821407,,bicycle_parking,amenity
55.6789965,12.5817223,,bicycle_parking,amenity
55.6783507,12.5815748,,bicycle_parking,amenity
55.6789844,12.5819315,,bicycle_parking,amenity
55.6790418,12.5818618,,recycling,amenity
55.6790010,12.5818189,,toilets,amenity
55.6789103,12.5812020,,bicycle_parking,amenity
55.6784933,12.5815684,Restaurant Maven,restaurant,amenity
55.6779000,12.5827508,,bicycle_parking,amenity
55.6780857,12.5834002,,bicycle_parking,amenity
55.6723586,12.5630101,Magasasa,restaurant,amenity
55.6822365,12.5769144,,bicycle_parking,amenity
55.6826554,12.5775796,,bicycle_parking,amenity
55.6821102,12.5765215,,recycling,amenity
55.6831032,12.5736109,,bicycle_parking,amenity
55.6809874,12.5784567,,bicycle_parking,amenity
55.6809594,12.5762975,,bicycle_parking,amenity
55.6827053,12.5774884,,bicycle_parking,amenity
55.6808127,12.5802900,,bicycle_parking,amenity
55.6806441,12.5791890,,bicycle_parking,amenity
55.6811885,12.5794089,,bicycle_parking,amenity
55.6832776,12.5725585,,bicycle_parking,amenity
55.6808687,12.5800204,,bicycle_parking,amenity
55.6851655,12.5682697,,post_box,amenity
55.6851821,12.5671874,,bicycle_parking,amenity
55.6864640,12.5617357,,bicycle_parking,amenity
55.6778494,12.5805044,,post_box,amenity
55.6791385,12.5867905,,bicycle_parking,amenity
55.6791339,12.5872250,,bicycle_parking,amenity
55.6787891,12.5869783,,bicycle_parking,amenity
55.6789525,12.5871285,,bicycle_parking,amenity
55.6790447,12.5849747,,bicycle_parking,amenity
55.6809092,12.5846886,,bicycle_parking,amenity
55.6804215,12.5877948,,toilets,amenity
55.6812405,12.5852536,,bicycle_parking,amenity
55.6804965,12.5874477,,bicycle_parking,amenity
55.6789540,12.5869515,,bicycle_parking,amenity
55.6789101,12.5851222,,bicycle_parking,amenity
55.6818249,12.5837473,,bicycle_parking,amenity
55.6821274,12.5837405,,bicycle_parking,amenity
55.6819874,12.5836171,,recycling,amenity
55.6819088,12.5838424,,bicycle_parking,amenity
55.6791768,12.5858541,,bicycle_parking,amenity
55.6629407,12.6155631,,bicycle,shop
55.6842095,12.5676624,fakta Q,supermarket,shop
55.6806072,12.5723378,,bicycle_parking,amenity
55.6767190,12.5665201,,post_box,amenity
55.6805346,12.5725310,,bicycle_parking,amenity
55.6770613,12.5670518,Viking City Cykler,bicycle,shop
55.6801943,12.5723405,,bicycle_parking,amenity
55.6779425,12.5673968,,post_box,amenity
55.6756724,12.5670190,,bicycle_parking,amenity
55.6805195,12.5718309,,bicycle_parking,amenity
55.6788174,12.5673986,,bicycle_parking,amenity
55.6793732,12.5697509,,bicycle_parking,amenity
55.6793452,12.5698635,,bicycle_parking,amenity
55.6790533,12.5685439,,bicycle_parking,amenity
55.6793263,12.5684714,,bicycle_parking,amenity
55.6793444,12.5696234,,bicycle_parking,amenity
55.6784779,12.5690843,,bicycle_parking,amenity
55.6786231,12.5694357,,bicycle_parking,amenity
55.6781452,12.5681590,,bicycle_parking,amenity
55.6752668,12.5852411,,bicycle_parking,amenity
